{"builtAt":"2026-06-10","pois":[{"id":"n11048271108","name":null,"cat":"camping","sub":"camp_site","lat":35.43048,"lon":-83.20097,"tags":{},"routes":{"out":{"m":574.1,"o":3.73}}},{"id":"n11048271107","name":null,"cat":"camping","sub":"camp_site","lat":35.43755,"lon":-83.18668,"tags":{},"routes":{"out":{"m":574.1,"o":2.79}}},{"id":"n6489151686","name":"Blevins home","cat":"lodging","sub":"chalet","lat":35.43273,"lon":-83.17332,"tags":{},"routes":{"out":{"m":574.1,"o":2.37}}},{"id":"n9957988854","name":"Mountaineer Restaurant & Fireside Cottages","cat":"food","sub":"restaurant","lat":35.5127,"lon":-83.13209,"tags":{"phone":"+18289261730"},"routes":{"out":{"m":579,"o":1.46}}},{"id":"n10723640156","name":"Treetop Cabin","cat":"lodging","sub":"hostel","lat":35.53053,"lon":-83.1296,"tags":{},"routes":{"out":{"m":579.8,"o":2.06}}},{"id":"n10721642097","name":"Route 19 Inn","cat":"lodging","sub":"motel","lat":35.52242,"lon":-83.10988,"tags":{"phone":"+18289440476"},"routes":{"out":{"m":579.7,"o":2.83}}},{"id":"n10723640155","name":"Smokey Shadows Lodge","cat":"lodging","sub":"motel","lat":35.53528,"lon":-83.10653,"tags":{"phone":"+18669260001"},"routes":{"out":{"m":579.8,"o":3.33}}},{"id":"n9957941910","name":"Brickhouse Burgers & Pizza","cat":"food","sub":"restaurant","lat":35.51798,"lon":-83.09352,"tags":{"phone":"+18289440909","cuisine":"pizza"},"routes":{"out":{"m":579,"o":3.63}}},{"id":"n10721642095","name":"Hillbilly Campground","cat":"camping","sub":"camp_site","lat":35.51735,"lon":-83.09726,"tags":{"phone":"+18289263353"},"routes":{"out":{"m":579,"o":3.41}}},{"id":"n10721642089","name":"Subway","cat":"food","sub":"fast_food","lat":35.51763,"lon":-83.08923,"tags":{"brand":"Subway","opening_hours":"Mo-Th 11:00-19:00; Fr-Sa 11:00-20:00; Su 13:00-19:00","phone":"+1 828-926-7717","website":"https://restaurants.subway.com/united-states/nc/maggie-valley/3670-soco-road","cuisine":"sandwich"},"routes":{"out":{"m":576.3,"o":3.83}}},{"id":"n10721642090","name":"Organic Beans Coffee Co","cat":"food","sub":"cafe","lat":35.51767,"lon":-83.08943,"tags":{"phone":"+18286682326"},"routes":{"out":{"m":576.3,"o":3.82}}},{"id":"n9957941908","name":"Pop's Biscuits, Burgers & BBQ","cat":"food","sub":"fast_food","lat":35.51483,"lon":-83.08393,"tags":{"phone":"+18289440677"},"routes":{"out":{"m":576.3,"o":3.94}}},{"id":"n9957941905","name":"Snappy's Italian Restaurant","cat":"food","sub":"restaurant","lat":35.5113,"lon":-83.07532,"tags":{"phone":"+18289266126"},"routes":{"out":{"m":569,"o":4.1}}},{"id":"n9957941901","name":"Smoky Falls Lodge","cat":"lodging","sub":"motel","lat":35.51291,"lon":-83.07149,"tags":{"phone":"+18779267440"},"routes":{"out":{"m":569,"o":4.27}}},{"id":"n10606318717","name":"Clarketon Motel","cat":"lodging","sub":"motel","lat":35.51655,"lon":-83.05395,"tags":{"phone":"+18289261110"},"routes":{"out":{"m":569,"o":4.88}}},{"id":"n10606318718","name":"Leatherwood Cottages","cat":"lodging","sub":"motel","lat":35.51676,"lon":-83.05464,"tags":{"phone":"+18289261807"},"routes":{"out":{"m":569,"o":4.88}}},{"id":"n10606318719","name":"Tanglewood Motel and Log Cabins","cat":"lodging","sub":"motel","lat":35.516,"lon":-83.05516,"tags":{"phone":"+18289261894"},"routes":{"out":{"m":569,"o":4.82}}},{"id":"n10606318720","name":"The Chalet Motel & Apartments","cat":"lodging","sub":"motel","lat":35.51559,"lon":-83.05922,"tags":{"phone":"+18289262811"},"routes":{"out":{"m":569,"o":4.69}}},{"id":"n10606318721","name":"Sunoco","cat":"fuel","sub":"fuel","lat":35.51649,"lon":-83.05934,"tags":{"brand":"Sunoco","phone":"+1 828-926-4487","website":"https://www.sunoco.com/locations/store/1786-soco-rd-maggie-valley-nc-0731080800"},"routes":{"out":{"m":569,"o":4.74}}},{"id":"n10606318722","name":"Stonebridge RV Resort and Campgrounds","cat":"camping","sub":"camp_site","lat":35.5172,"lon":-83.05856,"tags":{"phone":"+18289261904"},"routes":{"out":{"m":569,"o":4.81}}},{"id":"n10606318715","name":"Snuggle Inn","cat":"lodging","sub":"motel","lat":35.51716,"lon":-83.05242,"tags":{"phone":"+18289263883"},"routes":{"out":{"m":569,"o":4.96}}},{"id":"n10606318716","name":"Veda Inn & Cottages","cat":"lodging","sub":"motel","lat":35.51698,"lon":-83.05356,"tags":{"phone":"+1-828-735-5463","website":"https://www.vedainn.com"},"routes":{"out":{"m":569,"o":4.92}}},{"id":"n9957941911","name":"Pavino's.com","cat":"food","sub":"restaurant","lat":35.51728,"lon":-83.05495,"tags":{"phone":"+18289440007"},"routes":{"out":{"m":569,"o":4.9}}},{"id":"n10606318723","name":"Pop's Butts On The Creek LLC","cat":"food","sub":"restaurant","lat":35.51753,"lon":-83.05549,"tags":{"phone":"+18289267885"},"routes":{"out":{"m":569,"o":4.9}}},{"id":"n5937354287","name":"CH-1","cat":"camping","sub":"camp_site","lat":35.25586,"lon":-82.88924,"tags":{},"routes":{"out":{"m":546.5,"o":3.18}}},{"id":"n5937354288","name":"CH-2","cat":"camping","sub":"camp_site","lat":35.27226,"lon":-82.8858,"tags":{},"routes":{"out":{"m":546.2,"o":2.31}}},{"id":"n2771280404","name":null,"cat":"camping","sub":"camp_site","lat":35.26142,"lon":-82.84359,"tags":{},"routes":{"out":{"m":502.6,"o":3.78}}},{"id":"n2771371829","name":"Deep Gap Shelter","cat":"camping","sub":"camp_site","lat":35.2801,"lon":-82.86739,"tags":{},"routes":{"out":{"m":505.2,"o":2.47}}},{"id":"n5155198422","name":null,"cat":"camping","sub":"camp_site","lat":35.30804,"lon":-82.90882,"tags":{},"routes":{"out":{"m":545.3,"o":0.02}}},{"id":"n11057286770","name":null,"cat":"camping","sub":"camp_site","lat":35.31381,"lon":-82.90506,"tags":{},"routes":{"out":{"m":544.1,"o":0.22}}},{"id":"n11057235593","name":null,"cat":"camping","sub":"camp_site","lat":35.32019,"lon":-82.90064,"tags":{},"routes":{"out":{"m":544.1,"o":0.49}}},{"id":"n11057272533","name":null,"cat":"camping","sub":"camp_site","lat":35.31628,"lon":-82.89209,"tags":{},"routes":{"out":{"m":544.1,"o":0.9}}},{"id":"n11057286769","name":null,"cat":"camping","sub":"camp_site","lat":35.32396,"lon":-82.89594,"tags":{},"routes":{"out":{"m":543.2,"o":0.78}}},{"id":"n11057288991","name":null,"cat":"camping","sub":"camp_site","lat":35.32286,"lon":-82.89284,"tags":{},"routes":{"out":{"m":544.1,"o":0.96}}},{"id":"n11057289327","name":null,"cat":"camping","sub":"camp_site","lat":35.3236,"lon":-82.89226,"tags":{},"routes":{"out":{"m":542.7,"o":0.97}}},{"id":"n11057289328","name":null,"cat":"camping","sub":"camp_site","lat":35.32269,"lon":-82.89326,"tags":{},"routes":{"out":{"m":544.1,"o":0.93}}},{"id":"n11057296088","name":null,"cat":"camping","sub":"camp_site","lat":35.32628,"lon":-82.89086,"tags":{},"routes":{"out":{"m":542.5,"o":0.91}}},{"id":"n11057297550","name":null,"cat":"camping","sub":"camp_site","lat":35.32346,"lon":-82.89468,"tags":{},"routes":{"out":{"m":543.2,"o":0.86}}},{"id":"n11057304002","name":null,"cat":"camping","sub":"camp_site","lat":35.32451,"lon":-82.89647,"tags":{},"routes":{"out":{"m":543.2,"o":0.74}}},{"id":"n11057288992","name":null,"cat":"camping","sub":"camp_site","lat":35.31958,"lon":-82.88162,"tags":{},"routes":{"out":{"m":505.2,"o":0.73}}},{"id":"n11057296974","name":null,"cat":"camping","sub":"camp_site","lat":35.31931,"lon":-82.88141,"tags":{},"routes":{"out":{"m":505.2,"o":0.71}}},{"id":"n9908252820","name":null,"cat":"camping","sub":"camp_site","lat":35.32788,"lon":-82.87448,"tags":{},"routes":{"out":{"m":505.2,"o":0.87}}},{"id":"n9908252821","name":null,"cat":"camping","sub":"camp_site","lat":35.32803,"lon":-82.87487,"tags":{},"routes":{"out":{"m":505.2,"o":0.89}}},{"id":"n9908252822","name":null,"cat":"camping","sub":"camp_site","lat":35.32777,"lon":-82.87422,"tags":{},"routes":{"out":{"m":505.2,"o":0.86}}},{"id":"n9908252823","name":null,"cat":"camping","sub":"camp_site","lat":35.32929,"lon":-82.87505,"tags":{},"routes":{"out":{"m":505.2,"o":0.97}}},{"id":"n4503166598","name":null,"cat":"camping","sub":"camp_site","lat":35.34467,"lon":-82.86752,"tags":{},"routes":{"out":{"m":542.1,"o":1.92}}},{"id":"n4503166599","name":null,"cat":"camping","sub":"camp_site","lat":35.34515,"lon":-82.86703,"tags":{},"routes":{"out":{"m":542.1,"o":1.95}}},{"id":"n5155198421","name":null,"cat":"camping","sub":"camp_site","lat":35.37053,"lon":-82.93924,"tags":{},"routes":{"out":{"m":537.7,"o":0.21}}},{"id":"n4735244092","name":"Sunburst Campground","cat":"camping","sub":"camp_site","lat":35.3739,"lon":-82.94055,"tags":{"phone":"+1-828-877-3265","website":"https://www.fs.usda.gov/recarea/nfsnc/recarea/?recid=48160"},"routes":{"out":{"m":537.6,"o":0.03}}},{"id":"n4498380391","name":"Camp Daniel Boone, BSA","cat":"camping","sub":"camp_site","lat":35.39006,"lon":-82.89727,"tags":{},"routes":{"out":{"m":534.7,"o":2.22}}},{"id":"n2771200646","name":"Shining Rock Campground","cat":"camping","sub":"camp_site","lat":35.36756,"lon":-82.862,"tags":{},"routes":{"out":{"m":516.6,"o":2.5}}},{"id":"n9908191707","name":null,"cat":"camping","sub":"camp_site","lat":35.36951,"lon":-82.85176,"tags":{},"routes":{"out":{"m":516.6,"o":1.94}}},{"id":"n9908187759","name":null,"cat":"camping","sub":"camp_site","lat":35.369,"lon":-82.83772,"tags":{},"routes":{"out":{"m":516.6,"o":1.15}}},{"id":"n9908191630","name":null,"cat":"camping","sub":"camp_site","lat":35.3718,"lon":-82.84212,"tags":{},"routes":{"out":{"m":516.6,"o":1.44}}},{"id":"n9908209388","name":null,"cat":"camping","sub":"camp_site","lat":35.36928,"lon":-82.83836,"tags":{},"routes":{"out":{"m":516.6,"o":1.19}}},{"id":"n2771280402","name":"Butter Gap Shelter","cat":"camping","sub":"camp_site","lat":35.25322,"lon":-82.80959,"tags":{},"routes":{"out":{"m":502.5,"o":4.45}}},{"id":"n7124986848","name":null,"cat":"camping","sub":"camp_site","lat":35.27775,"lon":-82.79995,"tags":{},"routes":{"out":{"m":502.5,"o":3.12}}},{"id":"n9908193352","name":null,"cat":"camping","sub":"camp_site","lat":35.28372,"lon":-82.78901,"tags":{},"routes":{"out":{"m":502.5,"o":3.2}}},{"id":"n9908193359","name":null,"cat":"camping","sub":"camp_site","lat":35.28356,"lon":-82.78716,"tags":{},"routes":{"out":{"m":502.5,"o":3.29}}},{"id":"n9908193360","name":null,"cat":"camping","sub":"camp_site","lat":35.28357,"lon":-82.78739,"tags":{},"routes":{"out":{"m":502.5,"o":3.28}}},{"id":"n9908193361","name":null,"cat":"camping","sub":"camp_site","lat":35.28339,"lon":-82.78685,"tags":{},"routes":{"out":{"m":502.5,"o":3.31}}},{"id":"n5939312484","name":null,"cat":"camping","sub":"camp_site","lat":35.29952,"lon":-82.73782,"tags":{},"routes":{"out":{"m":499.3,"o":5}}},{"id":"n5937801054","name":null,"cat":"camping","sub":"camp_site","lat":35.32152,"lon":-82.77529,"tags":{},"routes":{"out":{"m":500.4,"o":2.42}}},{"id":"n5939312482","name":null,"cat":"camping","sub":"camp_site","lat":35.30961,"lon":-82.74657,"tags":{},"routes":{"out":{"m":499.3,"o":4.17}}},{"id":"n9908195406","name":null,"cat":"camping","sub":"camp_site","lat":35.36503,"lon":-82.83168,"tags":{},"routes":{"out":{"m":516.6,"o":0.79}}},{"id":"n9908209387","name":null,"cat":"camping","sub":"camp_site","lat":35.36676,"lon":-82.8349,"tags":{},"routes":{"out":{"m":516.6,"o":0.97}}},{"id":"n4502339107","name":"WF-3","cat":"camping","sub":"camp_site","lat":35.37466,"lon":-82.73599,"tags":{},"routes":{"out":{"m":494.3,"o":2.09}}},{"id":"n4721058973","name":"Thompson Creek Camp Site","cat":"camping","sub":"camp_site","lat":35.38502,"lon":-82.74531,"tags":{},"routes":{"out":{"m":494.2,"o":1.21}}},{"id":"n960519545","name":null,"cat":"food","sub":"restaurant","lat":35.40242,"lon":-82.75488,"tags":{},"routes":{"out":{"m":493.6,"o":0.05}}},{"id":"n960519557","name":"Pisgah Inn","cat":"lodging","sub":"motel","lat":35.40287,"lon":-82.75385,"tags":{},"routes":{"out":{"m":493.6,"o":0.06}}},{"id":"n9957354188","name":"Riverside Campground","cat":"camping","sub":"camp_site","lat":35.41712,"lon":-82.81129,"tags":{"phone":"+18282359128"},"routes":{"out":{"m":521.3,"o":0.04}}},{"id":"n5086878021","name":"Taco Bell","cat":"food","sub":"fast_food","lat":35.46621,"lon":-83.0068,"tags":{"brand":"Taco Bell","opening_hours":"08:00-01:00","phone":"+1 828-456-7890","website":"https://locations.tacobell.com/nc/waynesville/2087-s--main-st-.html","cuisine":"tex-mex"},"routes":{"out":{"m":562.7,"o":2.65}}},{"id":"n5104290521","name":"Luna","cat":"food","sub":"restaurant","lat":35.4683,"lon":-83.00425,"tags":{},"routes":{"out":{"m":562.6,"o":2.85}}},{"id":"n13017201998","name":"Daylight Donuts","cat":"food","sub":"fast_food","lat":35.46847,"lon":-83.00564,"tags":{"brand":"Daylight Donuts","cuisine":"donut"},"routes":{"out":{"m":562.7,"o":2.81}}},{"id":"n13017201999","name":"Bojangles'","cat":"food","sub":"fast_food","lat":35.4689,"lon":-83.00479,"tags":{"brand":"Bojangles'","cuisine":"chicken"},"routes":{"out":{"m":562.7,"o":2.86}}},{"id":"n2488391148","name":"City Bakery","cat":"food","sub":"cafe","lat":35.48549,"lon":-82.98961,"tags":{"phone":"+1-828-452-3881","website":"https://www.citybakery.net/"},"routes":{"out":{"m":562.7,"o":4.29}}},{"id":"n6317205128","name":"Ingles Gas Express","cat":"fuel","sub":"fuel","lat":35.498,"lon":-82.99366,"tags":{"website":"https://www.ingles-markets.com/"},"routes":{"out":{"m":562.7,"o":4.9}}},{"id":"n9467393983","name":"Jukebox Junction Restaurant and Soda Shop","cat":"food","sub":"restaurant","lat":35.47096,"lon":-82.88581,"tags":{"opening_hours":"Mo,Su off; Tu-Sa 07:00-20:00","phone":"+1 828-648-4546","cuisine":"burger;sandwich;ice_cream"},"routes":{"out":{"m":528.2,"o":0.05}}},{"id":"n9467393985","name":"BP","cat":"fuel","sub":"fuel","lat":35.46886,"lon":-82.87814,"tags":{"brand":"BP"},"routes":{"out":{"m":527.8,"o":0.01}}},{"id":"n9467398875","name":"Mobil","cat":"fuel","sub":"fuel","lat":35.47144,"lon":-82.88868,"tags":{"brand":"Mobil"},"routes":{"out":{"m":528.3,"o":0.2}}},{"id":"n9831418138","name":"BP","cat":"fuel","sub":"fuel","lat":35.53171,"lon":-82.91646,"tags":{"brand":"BP"},"routes":{"out":{"m":528.2,"o":4.56}}},{"id":"n10011208524","name":"Hit The Pit BBQ Co","cat":"food","sub":"restaurant","lat":35.53155,"lon":-82.90441,"tags":{"phone":"+18285076209"},"routes":{"out":{"m":528.2,"o":4.33}}},{"id":"n8020037529","name":"Gaia Arise Farm","cat":"lodging","sub":"hotel","lat":35.51474,"lon":-82.86505,"tags":{"website":"https://gaiaarisefarms.com/home"},"routes":{"out":{"m":528.2,"o":3.22}}},{"id":"n10723640168","name":"Exxon","cat":"fuel","sub":"fuel","lat":35.53217,"lon":-82.86456,"tags":{"brand":"Exxon","phone":"+18286487611"},"routes":{"out":{"m":528.2,"o":4.37}}},{"id":"n10723640169","name":"Domino's","cat":"food","sub":"fast_food","lat":35.53256,"lon":-82.86406,"tags":{"brand":"Domino's","opening_hours":"Mo-Th 10:30-24:00; Fr-Sa 10:30-01:00; Su 10:30-24:00","phone":"+1 828-648-7499","website":"https://pizza.dominos.com/north-carolina/canton/78-new-clyde-highway","cuisine":"pizza"},"routes":{"out":{"m":528.2,"o":4.41}}},{"id":"n10723640170","name":"Canelos Mexican Family Restaurant","cat":"food","sub":"restaurant","lat":35.53234,"lon":-82.86341,"tags":{"phone":"+18286480303","cuisine":"mexican"},"routes":{"out":{"m":528.2,"o":4.4}}},{"id":"n10723640171","name":"China king","cat":"food","sub":"restaurant","lat":35.5328,"lon":-82.86328,"tags":{"phone":"+18282358815","cuisine":"chinese"},"routes":{"out":{"m":528.2,"o":4.44}}},{"id":"n10723640172","name":"Papa John's","cat":"food","sub":"fast_food","lat":35.53297,"lon":-82.86328,"tags":{"brand":"Papa John's","opening_hours":"10:00-23:00","phone":"+1 828-646-6789","website":"https://locations.papajohns.com/united-states/nc/28716/canton/59-plaza-loop","cuisine":"pizza"},"routes":{"out":{"m":528.2,"o":4.45}}},{"id":"n10723640178","name":"McDonald's","cat":"food","sub":"fast_food","lat":35.53247,"lon":-82.86273,"tags":{"brand":"McDonald's","phone":"+18286485850","website":"https://www.mcdonalds.com/us/en-us/location/nc/canton/14-plaza-loop/5070.html","cuisine":"burger"},"routes":{"out":{"m":528.2,"o":4.42}}},{"id":"n10723640179","name":"Sonic","cat":"food","sub":"fast_food","lat":35.53261,"lon":-82.86201,"tags":{"brand":"Sonic","opening_hours":"Mo-Th 07:00-22:00; Fr-Sa 07:00-23:00; Su 09:00-22:00","phone":"+1 828-648-5850","website":"https://locations.sonicdrivein.com/nc/canton/72-new-clyde-highway.html","cuisine":"burger"},"routes":{"out":{"m":528.2,"o":4.44}}},{"id":"n10723640180","name":"Dickey's Barbecue Pit","cat":"food","sub":"restaurant","lat":35.53256,"lon":-82.86138,"tags":{"brand":"Dickey's Barbecue Pit","phone":"+18284920237","cuisine":"barbecue"},"routes":{"out":{"m":528.2,"o":4.45}}},{"id":"n10723640182","name":"Massey's Mobile Grill","cat":"food","sub":"restaurant","lat":35.53298,"lon":-82.85998,"tags":{"phone":"+18285501960"},"routes":{"out":{"m":528.2,"o":4.5}}},{"id":"n10158928366","name":"Shell","cat":"fuel","sub":"fuel","lat":35.54022,"lon":-82.65628,"tags":{"brand":"Shell"},"routes":{"out":{"m":478.7,"o":4.52}}},{"id":"n10158905477","name":"BP","cat":"fuel","sub":"fuel","lat":35.54253,"lon":-82.63584,"tags":{"brand":"BP"},"routes":{"out":{"m":478.7,"o":3.81}}},{"id":"n3488119367","name":"BP","cat":"fuel","sub":"fuel","lat":35.5608,"lon":-82.63607,"tags":{"brand":"BP"},"routes":{"out":{"m":478.7,"o":4.86}}},{"id":"n3488122293","name":"Shell","cat":"fuel","sub":"fuel","lat":35.56059,"lon":-82.63672,"tags":{"brand":"Shell"},"routes":{"out":{"m":478.7,"o":4.86}}},{"id":"n3488104873","name":"Speedway","cat":"fuel","sub":"fuel","lat":35.56393,"lon":-82.62809,"tags":{"brand":"Speedway","phone":"+1-828-670-7188","website":"https://www.speedway.com/locations/NC/Asheville/158-Smoky-Park-Highway"},"routes":{"out":{"m":478.7,"o":4.85}}},{"id":"n11460812219","name":null,"cat":"fuel","sub":"fuel","lat":35.56456,"lon":-82.62835,"tags":{},"routes":{"out":{"m":478.7,"o":4.89}}},{"id":"n12696366303","name":"Murphy Express","cat":"fuel","sub":"fuel","lat":35.45407,"lon":-82.52301,"tags":{"brand":"Murphy Express"},"routes":{"out":{"m":476.6,"o":3.65}}},{"id":"n13925253002","name":"Corner Grill Arden","cat":"food","sub":"restaurant","lat":35.46923,"lon":-82.57853,"tags":{"opening_hours":"Mo-Fr 06:00-21:00","phone":"8286871687","website":"https://cornergrillarden.com"},"routes":{"out":{"m":480.5,"o":1.36}}},{"id":"n4247325896","name":"Firefighter Island Campsite","cat":"camping","sub":"camp_site","lat":35.49206,"lon":-82.5782,"tags":{"website":"https://frenchbroadpaddle.com/"},"routes":{"out":{"m":477.7,"o":0.54}}},{"id":"n8814851487","name":"Sensibilities Day Spa","cat":"lodging","sub":"hotel","lat":35.48424,"lon":-82.55719,"tags":{},"routes":{"out":{"m":476.8,"o":0.91}}},{"id":"n12106893335","name":"Which Wich?","cat":"food","sub":"fast_food","lat":35.48431,"lon":-82.55761,"tags":{"brand":"Which Wich?","phone":"+18286763048","website":"https://www.whichwich.com/","cuisine":"sandwich"},"routes":{"out":{"m":476.8,"o":0.89}}},{"id":"n4172060097","name":"Starbucks","cat":"food","sub":"cafe","lat":35.48281,"lon":-82.5547,"tags":{"brand":"Starbucks","phone":"+1 828-458-3700","website":"https://www.starbucks.com/store-locator/store/1008761/long-shoals-rd-i-26-26-carl-alwin-place-10-asheville-nc-288034640-","cuisine":"coffee_shop"},"routes":{"out":{"m":476.8,"o":1.06}}},{"id":"n3320161751","name":"Starbucks","cat":"food","sub":"cafe","lat":35.48461,"lon":-82.55629,"tags":{"brand":"Starbucks","cuisine":"coffee_shop"},"routes":{"out":{"m":476.8,"o":0.91}}},{"id":"n12106533006","name":"Brixx Wood Fired Pizza","cat":"food","sub":"restaurant","lat":35.48518,"lon":-82.55669,"tags":{"phone":"+18286540046","website":"https://brixxpizza.com/","cuisine":"pizza"},"routes":{"out":{"m":476.8,"o":0.86}}},{"id":"n12106533011","name":"Hickory Tavern","cat":"food","sub":"restaurant","lat":35.48533,"lon":-82.55643,"tags":{"phone":"+18286840975","website":"https://www.thehickorytavern.com/"},"routes":{"out":{"m":476.8,"o":0.86}}},{"id":"n12106893208","name":"131 Main","cat":"food","sub":"restaurant","lat":35.48512,"lon":-82.55765,"tags":{"phone":"+18286510131","website":"https://www.131-main.com/asheville/"},"routes":{"out":{"m":476.8,"o":0.84}}},{"id":"n13025591319","name":"Nine Mile","cat":"food","sub":"restaurant","lat":35.48465,"lon":-82.55675,"tags":{},"routes":{"out":{"m":476.8,"o":0.89}}},{"id":"n3320160984","name":"Mosaic Cafe","cat":"food","sub":"cafe","lat":35.48632,"lon":-82.55409,"tags":{"website":"http://ilovemosaiccafe.com","cuisine":"sandwich"},"routes":{"out":{"m":476.6,"o":0.85}}},{"id":"n5688730559","name":"Another Broken Egg Cafe","cat":"food","sub":"restaurant","lat":35.48516,"lon":-82.55318,"tags":{"phone":"+18286762823","website":"https://anotherbrokenegg.com/location/asheville-nc","cuisine":"breakfast"},"routes":{"out":{"m":476.6,"o":0.94}}},{"id":"n12111494863","name":"Chipotle","cat":"food","sub":"fast_food","lat":35.50461,"lon":-82.52393,"tags":{"brand":"Chipotle","phone":"+1 828-274-6370","website":"https://locations.chipotle.com/nc/asheville/1828-hendersonville-rd","cuisine":"mexican"},"routes":{"out":{"m":474.2,"o":0.93}}},{"id":"n12111494864","name":"Chick-fil-A","cat":"food","sub":"fast_food","lat":35.50515,"lon":-82.52418,"tags":{"brand":"Chick-fil-A","opening_hours":"Mo-Sa 06:30-21:00; Su off","phone":"+1 828-277-9913","website":"https://www.chick-fil-a.com/locations/nc/south-asheville","cuisine":"chicken"},"routes":{"out":{"m":474.2,"o":0.89}}},{"id":"n12111494865","name":"McDonald's","cat":"food","sub":"fast_food","lat":35.5087,"lon":-82.52659,"tags":{"brand":"McDonald's","opening_hours":"05:00-22:00","phone":"+1 828-277-7827","website":"https://www.mcdonalds.com/us/en-us/location/35771.html","cuisine":"burger"},"routes":{"out":{"m":474.2,"o":0.61}}},{"id":"n12111494866","name":"Zaxby's","cat":"food","sub":"fast_food","lat":35.51026,"lon":-82.52589,"tags":{"brand":"Zaxby's","opening_hours":"10:30-23:00","phone":"+1 828-277-2228","website":"https://www.zaxbys.com/locations/nc/asheville/1650-hendersonville-rd","cuisine":"chicken"},"routes":{"out":{"m":474.1,"o":0.54}}},{"id":"n12111494867","name":"Wendy's","cat":"food","sub":"fast_food","lat":35.51069,"lon":-82.52589,"tags":{"brand":"Wendy's","opening_hours":"Mo-Th 09:00-22:00; Fr-Sa 09:00-23:00; Su 09:00-22:00","phone":"+1 828-274-2483","website":"https://locations.wendys.com/united-states/nc/asheville/1648-hendersonville-rd","cuisine":"burger"},"routes":{"out":{"m":474.1,"o":0.52}}},{"id":"n12512370213","name":"Green Sage Cafe","cat":"food","sub":"cafe","lat":35.50595,"lon":-82.52431,"tags":{"opening_hours":"Mo-Su 08:00-15:00","phone":"+1-828-274-4450","website":"https://greensagecafe.com"},"routes":{"out":{"m":474.2,"o":0.84}}},{"id":"n11523853575","name":"Hot Spot","cat":"fuel","sub":"fuel","lat":35.52238,"lon":-82.60647,"tags":{},"routes":{"out":{"m":478.7,"o":1.73}}},{"id":"n11519401767","name":"Shell","cat":"fuel","sub":"fuel","lat":35.52979,"lon":-82.60633,"tags":{"brand":"Shell"},"routes":{"out":{"m":478.7,"o":2.2}}},{"id":"n11519449396","name":"Ingles Gas Express","cat":"fuel","sub":"fuel","lat":35.53036,"lon":-82.60622,"tags":{"brand":"Ingles Gas Express"},"routes":{"out":{"m":478.7,"o":2.23}}},{"id":"n11523995029","name":"BP","cat":"fuel","sub":"fuel","lat":35.55327,"lon":-82.60042,"tags":{"brand":"BP"},"routes":{"out":{"m":478.3,"o":3.66}}},{"id":"n6117316787","name":"Mr. Sushi","cat":"food","sub":"restaurant","lat":35.51463,"lon":-82.52712,"tags":{"opening_hours":"Mo-Th 11:00-21:00; Fr 11:00-22:00; Sa 12:00-22:00; Su 12:00-20:00"},"routes":{"out":{"m":474,"o":0.26}}},{"id":"n6117351085","name":"Abeja’s House Cafe","cat":"food","sub":"cafe","lat":35.51551,"lon":-82.52717,"tags":{"opening_hours":"Tu-Su 07:00-15:00"},"routes":{"out":{"m":474,"o":0.22}}},{"id":"n12512370203","name":"Asheville Sushi and Hibachi","cat":"food","sub":"restaurant","lat":35.51246,"lon":-82.52555,"tags":{"phone":"+1-828-277-3838","cuisine":"japanese"},"routes":{"out":{"m":474,"o":0.43}}},{"id":"n9374682008","name":"Speedway","cat":"fuel","sub":"fuel","lat":35.54928,"lon":-82.53517,"tags":{"brand":"Speedway","website":"https://www.speedway.com/locations/NC/Asheville/648-Hendersonville-Road"},"routes":{"out":{"m":472.4,"o":1.92}}},{"id":"n3708485534","name":null,"cat":"fuel","sub":"fuel","lat":35.49999,"lon":-82.52238,"tags":{},"routes":{"out":{"m":474.2,"o":1.25}}},{"id":"n12800901803","name":null,"cat":"fuel","sub":"fuel","lat":35.57908,"lon":-82.56313,"tags":{},"routes":{"out":{"m":468.8,"o":3.63}}},{"id":"n12800547375","name":"BP","cat":"fuel","sub":"fuel","lat":35.56553,"lon":-82.54332,"tags":{"brand":"BP"},"routes":{"out":{"m":468.8,"o":2.37}}},{"id":"n11739960601","name":"Shell","cat":"fuel","sub":"fuel","lat":35.56975,"lon":-82.54498,"tags":{"brand":"Shell"},"routes":{"out":{"m":468.8,"o":2.49}}},{"id":"n3488203413","name":"Pizza Hut","cat":"food","sub":"restaurant","lat":35.56634,"lon":-82.51024,"tags":{"brand":"Pizza Hut","phone":"+1 828-274-8739","website":"https://locations.pizzahut.com/nc/asheville/790-c-fairview-rd","cuisine":"pizza"},"routes":{"out":{"m":468.8,"o":0.53}}},{"id":"n12941744205","name":"Citgo","cat":"fuel","sub":"fuel","lat":35.56606,"lon":-82.51023,"tags":{"brand":"Citgo"},"routes":{"out":{"m":468.8,"o":0.52}}},{"id":"n12767032710","name":"Mr. Kabab Grill","cat":"food","sub":"restaurant","lat":35.57055,"lon":-82.50195,"tags":{},"routes":{"out":{"m":468.5,"o":0.35}}},{"id":"n12235126108","name":"Ingles Gas Express","cat":"fuel","sub":"fuel","lat":35.58702,"lon":-82.4879,"tags":{"brand":"Ingles Gas Express"},"routes":{"out":{"m":467.3,"o":0.95}}},{"id":"n8487054188","name":"Domino's","cat":"food","sub":"fast_food","lat":35.5855,"lon":-82.47442,"tags":{"brand":"Domino's","opening_hours":"Mo-Th 10:30-24:00; Fr-Sa 10:30-01:00; Su 10:30-24:00","phone":"+1 828-298-2700","website":"https://pizza.dominos.com/north-carolina/asheville/1269-tunnel-rd","cuisine":"pizza"},"routes":{"out":{"m":466.7,"o":0.5}}},{"id":"n3050560356","name":"Sunoco","cat":"fuel","sub":"fuel","lat":35.59465,"lon":-82.42503,"tags":{"brand":"Sunoco","phone":"+1 828-298-2421","website":"https://www.sunoco.com/locations/store/2077-us-highway-70-swannanoa-nc-0873872600"},"routes":{"out":{"m":463.8,"o":0.14}}},{"id":"n3050608687","name":"Gas Express","cat":"fuel","sub":"fuel","lat":35.59887,"lon":-82.40651,"tags":{},"routes":{"out":{"m":462.8,"o":0.25}}},{"id":"n3050608711","name":"La Bamba Burrito Express","cat":"food","sub":"fast_food","lat":35.59967,"lon":-82.40772,"tags":{"phone":"+1-828-686-5957","website":"https://labambaburritoexpressnc.com"},"routes":{"out":{"m":462.9,"o":0.29}}},{"id":"n3050632483","name":"Papa John's","cat":"food","sub":"fast_food","lat":35.59797,"lon":-82.40661,"tags":{"brand":"Papa John's","opening_hours":"11:00-23:00","phone":"+1 828-686-5678","website":"https://locations.papajohns.com/united-states/nc/28778/swannanoa/2301-us-hwy-70","cuisine":"pizza"},"routes":{"out":{"m":462.8,"o":0.19}}},{"id":"n3050607731","name":"Breakfast Shoppe","cat":"food","sub":"fast_food","lat":35.59946,"lon":-82.4043,"tags":{},"routes":{"out":{"m":462.7,"o":0.31}}},{"id":"n3050607732","name":"Shell","cat":"fuel","sub":"fuel","lat":35.59964,"lon":-82.4039,"tags":{"brand":"Shell"},"routes":{"out":{"m":462.6,"o":0.33}}},{"id":"n3050608649","name":"Burger King","cat":"food","sub":"fast_food","lat":35.59935,"lon":-82.40464,"tags":{"brand":"Burger King","opening_hours":"07:00-21:00","phone":"+1 828-686-7910","website":"https://www.bk.com/store-locator/store/restaurant_3749","cuisine":"burger"},"routes":{"out":{"m":462.7,"o":0.31}}},{"id":"n3050608653","name":"BP","cat":"fuel","sub":"fuel","lat":35.60016,"lon":-82.40368,"tags":{"brand":"BP"},"routes":{"out":{"m":462.6,"o":0.36}}},{"id":"n10640795479","name":"Blunt Pretzels","cat":"food","sub":"fast_food","lat":35.59936,"lon":-82.39765,"tags":{"phone":"+18286190734"},"routes":{"out":{"m":462.2,"o":0.2}}},{"id":"n7237447230","name":"Ingles Gas Express","cat":"fuel","sub":"fuel","lat":35.60752,"lon":-82.32008,"tags":{"brand":"Ingles Gas Express"},"routes":{"out":{"m":457.9,"o":0.22}}},{"id":"n687706564","name":"Wendy's","cat":"food","sub":"fast_food","lat":35.60821,"lon":-82.31854,"tags":{"brand":"Wendy's","opening_hours":"Mo-Th 09:00-22:00; Fr-Sa 09:00-23:00; Su 09:00-22:00","phone":"+1 828-669-9451","website":"https://locations.wendys.com/united-states/nc/black-mountain/591-nc-highway-9","cuisine":"burger"},"routes":{"out":{"m":457.8,"o":0.24}}},{"id":"n687706649","name":"Taco Bell","cat":"food","sub":"fast_food","lat":35.60816,"lon":-82.31964,"tags":{"brand":"Taco Bell","phone":"+18286690087","website":"https://locations.tacobell.com/nc/black-mountain/530-nc-highway-9.html","cuisine":"tex-mex"},"routes":{"out":{"m":457.8,"o":0.2}}},{"id":"n687710233","name":"McDonald's","cat":"food","sub":"fast_food","lat":35.60988,"lon":-82.32007,"tags":{"brand":"McDonald's","phone":"+18286695062","website":"https://www.mcdonalds.com/us/en-us/location/nc/black-mountain/500-nc-hwy-9/6019.html","cuisine":"burger"},"routes":{"out":{"m":457.8,"o":0.09}}},{"id":"n6610163892","name":"Foothills Butcher Bar: Black Mountain","cat":"food","sub":"restaurant","lat":35.6148,"lon":-82.32035,"tags":{"phone":"+18283579029"},"routes":{"out":{"m":457.6,"o":0.19}}},{"id":"n6610167850","name":"Que Sera","cat":"food","sub":"restaurant","lat":35.61521,"lon":-82.32049,"tags":{"phone":"+18286649472"},"routes":{"out":{"m":457.6,"o":0.21}}},{"id":"n7237447271","name":"The Monte Vista Hotel","cat":"lodging","sub":"motel","lat":35.61535,"lon":-82.3239,"tags":{"phone":"+1-828-669-8870"},"routes":{"out":{"m":457.7,"o":0.34}}},{"id":"n9764761151","name":"Cup of Jomo","cat":"food","sub":"cafe","lat":35.61433,"lon":-82.32073,"tags":{"website":"https://www.wncoutdoorcollective.com/coffee","cuisine":"coffee_shop"},"routes":{"out":{"m":457.6,"o":0.17}}},{"id":"n687636928","name":"Shell","cat":"fuel","sub":"fuel","lat":35.61423,"lon":-82.31937,"tags":{"brand":"Shell","phone":"+1-828-669-5086"},"routes":{"out":{"m":457.6,"o":0.12}}},{"id":"n687708841","name":"BP","cat":"fuel","sub":"fuel","lat":35.60944,"lon":-82.31918,"tags":{"brand":"BP","phone":"+18286698686"},"routes":{"out":{"m":457.8,"o":0.15}}},{"id":"n7237447233","name":"Pizza Hut","cat":"food","sub":"restaurant","lat":35.61368,"lon":-82.31928,"tags":{"brand":"Pizza Hut","phone":"+1 828-669-9455","website":"https://locations.pizzahut.com/nc/black-mountain/250-us-highway-9","cuisine":"pizza"},"routes":{"out":{"m":457.6,"o":0.09}}},{"id":"n7237447235","name":"Starbucks","cat":"food","sub":"cafe","lat":35.61491,"lon":-82.3184,"tags":{"brand":"Starbucks","website":"https://www.starbucks.com/store-locator/store/1021356/hwy-9-i-40-203-highway-9-black-mountain-nc-287113426-us","cuisine":"coffee_shop"},"routes":{"out":{"m":457.5,"o":0.12}}},{"id":"n9740415189","name":"Bush Farmhouse","cat":"food","sub":"restaurant","lat":35.61722,"lon":-82.31708,"tags":{"opening_hours":"Mo-Su 11:00-21:00","phone":"+1-828-357-5367"},"routes":{"out":{"m":457.3,"o":0.21}}},{"id":"n9819947629","name":"TriCo","cat":"fuel","sub":"fuel","lat":35.61977,"lon":-82.31741,"tags":{"phone":"+18286699392"},"routes":{"out":{"m":457.2,"o":0.36}}},{"id":"n6760996131","name":"Catawba Falls Campground, LLC","cat":"camping","sub":"camp_site","lat":35.61371,"lon":-82.22338,"tags":{"phone":"+1-828-668-4831"},"routes":{"out":{"m":451.4,"o":0.62}}},{"id":"n6827290571","name":null,"cat":"fuel","sub":"fuel","lat":35.62026,"lon":-82.31226,"tags":{},"routes":{"out":{"m":457,"o":0.21}}},{"id":"n8350484988","name":null,"cat":"camping","sub":"camp_site","lat":35.63221,"lon":-82.28705,"tags":{},"routes":{"out":{"m":455.6,"o":0.89}}},{"id":"n6760971077","name":"Shell","cat":"fuel","sub":"fuel","lat":35.62115,"lon":-82.18001,"tags":{"brand":"Shell","phone":"+1-828-668-4272"},"routes":{"out":{"m":449,"o":0.13}}},{"id":"n6760968422","name":"Hardee's","cat":"food","sub":"fast_food","lat":35.62476,"lon":-82.18068,"tags":{"brand":"Hardee's","opening_hours":"Mo-Sa 05:00-22:00; Su 06:00-22:00","phone":"+1 828-668-9331","website":"https://locations.hardees.com/nc/old-fort/307-s-catawba-ave","cuisine":"burger"},"routes":{"out":{"m":448.9,"o":0.12}}},{"id":"n6760972641","name":"Top Fuel Grill","cat":"food","sub":"restaurant","lat":35.6249,"lon":-82.18148,"tags":{"phone":"+1-828-668-1300"},"routes":{"out":{"m":449,"o":0.14}}},{"id":"n6760972642","name":"BP","cat":"fuel","sub":"fuel","lat":35.62391,"lon":-82.18153,"tags":{"brand":"BP","phone":"+1-828-668-7245"},"routes":{"out":{"m":449,"o":0.08}}},{"id":"n9739904211","name":"Subway","cat":"food","sub":"fast_food","lat":35.62791,"lon":-82.18086,"tags":{"brand":"Subway","opening_hours":"08:30-21:30","phone":"+1 828-619-0992","website":"https://restaurants.subway.com/united-states/nc/old-fort/85-s-catawba-ave","cuisine":"sandwich"},"routes":{"out":{"m":448.8,"o":0.3}}},{"id":"n9739904214","name":"Mountain Appalachian Inn","cat":"lodging","sub":"motel","lat":35.62971,"lon":-82.18202,"tags":{},"routes":{"out":{"m":448.7,"o":0.44}}},{"id":"n9739958423","name":"Whistle Stop Pizza & Subs","cat":"food","sub":"fast_food","lat":35.62945,"lon":-82.18108,"tags":{"phone":"+18286687676","cuisine":"pizza"},"routes":{"out":{"m":448.7,"o":0.39}}},{"id":"n10021268709","name":"Catawba Vale Business HUB","cat":"food","sub":"cafe","lat":35.62952,"lon":-82.18093,"tags":{"cuisine":"coffee_shop"},"routes":{"out":{"m":448.7,"o":0.39}}},{"id":"n6760966485","name":"Headwaters Kitchen","cat":"food","sub":"restaurant","lat":35.64075,"lon":-82.16601,"tags":{"opening_hours":"We-Sa 08:00-14:00; Su 09:00-14:00","phone":"+18286686110"},"routes":{"out":{"m":447.6,"o":0.36}}},{"id":"n7430311331","name":"DQ Grill & Chill","cat":"food","sub":"fast_food","lat":35.63782,"lon":-82.14333,"tags":{"brand":"DQ Grill & Chill","opening_hours":"Mo-Su 08:00-21:00","phone":"+1 828-668-7511","website":"https://www.dairyqueen.com/locations/nc/old-fort/121-parker-padgett-rd/12896","cuisine":"ice_cream;burger"},"routes":{"out":{"m":446.5,"o":0.1}}},{"id":"n6796258039","name":null,"cat":"fuel","sub":"fuel","lat":35.64281,"lon":-82.04039,"tags":{},"routes":{"out":{"m":438.8,"o":3.61}}},{"id":"n12196917923","name":null,"cat":"fuel","sub":"fuel","lat":35.64278,"lon":-82.03982,"tags":{},"routes":{"out":{"m":438.8,"o":3.63}}},{"id":"n2390094819","name":"BP","cat":"fuel","sub":"fuel","lat":35.64876,"lon":-82.03307,"tags":{"brand":"BP","phone":"+18286522891"},"routes":{"out":{"m":438.8,"o":3.4}}},{"id":"n2390094926","name":"Murphy Express","cat":"fuel","sub":"fuel","lat":35.65059,"lon":-82.03206,"tags":{"brand":"Murphy Express"},"routes":{"out":{"m":438.8,"o":3.32}}},{"id":"n5155545523","name":null,"cat":"camping","sub":"camp_site","lat":35.69558,"lon":-82.19714,"tags":{},"routes":{"out":{"m":444.5,"o":3.93}}},{"id":"n5155545524","name":null,"cat":"camping","sub":"camp_site","lat":35.72096,"lon":-82.18291,"tags":{},"routes":{"out":{"m":444.2,"o":4.84}}},{"id":"n9737355383","name":"Mountain Stream RV Park","cat":"camping","sub":"caravan_site","lat":35.73899,"lon":-82.134,"tags":{"phone":"+1-828-724-9013"},"routes":{"out":{"m":436.4,"o":3.67}}},{"id":"n9819899898","name":"Triple C Campground","cat":"camping","sub":"camp_site","lat":35.73544,"lon":-82.12879,"tags":{"phone":"+18287244099"},"routes":{"out":{"m":436.4,"o":3.32}}},{"id":"n6831593313","name":"TJ's Cafe Southern Breakfast & Lunch","cat":"food","sub":"restaurant","lat":35.68755,"lon":-82.06377,"tags":{"phone":"+1-828-724-4105"},"routes":{"out":{"m":439,"o":0.29}}},{"id":"n9819899897","name":"Buck Creek RV Park","cat":"camping","sub":"caravan_site","lat":35.71884,"lon":-82.0741,"tags":{"phone":"+18287244888"},"routes":{"out":{"m":436.8,"o":0.12}}},{"id":"n2390095115","name":"Excel","cat":"fuel","sub":"fuel","lat":35.6887,"lon":-81.9999,"tags":{"brand":"Excel"},"routes":{"out":{"m":438.8,"o":3.49}}},{"id":"n7222985107","name":"Mad Mama's River Run Campground","cat":"camping","sub":"camp_site","lat":35.69477,"lon":-82.04995,"tags":{},"routes":{"out":{"m":438.8,"o":0.7}}},{"id":"n6694800951","name":"Wendy's","cat":"food","sub":"fast_food","lat":35.7035,"lon":-82.0386,"tags":{"brand":"Wendy's","opening_hours":"Mo-Th 09:00-22:00; Fr-Sa 09:00-23:00; Su 09:00-22:00","phone":"+1 828-652-5370","website":"https://locations.wendys.com/united-states/nc/marion/368-us-70-w","cuisine":"burger"},"routes":{"out":{"m":438.8,"o":1.53}}},{"id":"n6694810455","name":"Little Caesars","cat":"food","sub":"fast_food","lat":35.70293,"lon":-82.03816,"tags":{"brand":"Little Caesars","opening_hours":"Mo-Th 11:00-21:00; Fr, Sa 11:00-21:30; Su 11:00-21:00","phone":"+1-828-659-8900","website":"https://littlecaesars.com/en-us/store/9549/","cuisine":"pizza"},"routes":{"out":{"m":438.8,"o":1.53}}},{"id":"n6694815024","name":"J Hartman’s","cat":"food","sub":"restaurant","lat":35.70322,"lon":-82.03939,"tags":{"opening_hours":"Mo-Sa 10:30-21:00","phone":"+1-828-652-3352"},"routes":{"out":{"m":438.8,"o":1.48}}},{"id":"n10244800428","name":"No. 1 China","cat":"food","sub":"restaurant","lat":35.70484,"lon":-82.03952,"tags":{"phone":"+18286596221","cuisine":"chinese"},"routes":{"out":{"m":438.8,"o":1.53}}},{"id":"n10244800429","name":"Subway","cat":"food","sub":"fast_food","lat":35.70476,"lon":-82.03973,"tags":{"brand":"Subway","opening_hours":"Mo-Sa 08:00-21:30; Su 09:00-21:00","phone":"+1 828-652-7555","website":"https://restaurants.subway.com/united-states/nc/marion/364-us-hwy-70-west","cuisine":"sandwich"},"routes":{"out":{"m":438.8,"o":1.52}}},{"id":"n10748511187","name":"Nopales Fresh Amex Express","cat":"food","sub":"restaurant","lat":35.7029,"lon":-82.03823,"tags":{"opening_hours":"Mo-Su 11:00-21:00","phone":"+1-828-559-0754","website":"https://www.nopalesfreshmexexpress.com/marion.html","cuisine":"mexican"},"routes":{"out":{"m":438.8,"o":1.52}}},{"id":"n6694826430","name":"McDonald's","cat":"food","sub":"fast_food","lat":35.70399,"lon":-82.03777,"tags":{"brand":"McDonald's","opening_hours":"Mo-Su 05:00-23:00","website":"https://www.mcdonalds.com/us/en-us/location/nc/marion/1222-highway-70-west/12108.html","cuisine":"burger"},"routes":{"out":{"m":438.8,"o":1.58}}},{"id":"n6694836358","name":"Sonic","cat":"food","sub":"fast_food","lat":35.70545,"lon":-82.035,"tags":{"brand":"Sonic","opening_hours":"Mo-Th 06:30-23:00; Fr 06:30-24:00; Sa 07:00-24:00; Su 07:00-23:00","phone":"+1 828-659-9350","website":"https://locations.sonicdrivein.com/nc/marion/166-us-70-west.html","cuisine":"burger"},"routes":{"out":{"m":438.8,"o":1.77}}},{"id":"n6694839034","name":"Taco Bell","cat":"food","sub":"fast_food","lat":35.70494,"lon":-82.03594,"tags":{"brand":"Taco Bell","phone":"+18286529233","website":"https://locations.tacobell.com/nc/marion/182-us-70-w.html","cuisine":"tex-mex"},"routes":{"out":{"m":438.8,"o":1.71}}},{"id":"n6764556153","name":"Citgo","cat":"fuel","sub":"fuel","lat":35.7031,"lon":-82.0306,"tags":{"brand":"Citgo"},"routes":{"out":{"m":438.8,"o":1.91}}},{"id":"n6764648586","name":"Budget Inn","cat":"lodging","sub":"motel","lat":35.7029,"lon":-82.0293,"tags":{},"routes":{"out":{"m":438.8,"o":1.98}}},{"id":"n6764648990","name":"Samir’s","cat":"fuel","sub":"fuel","lat":35.7028,"lon":-82.0303,"tags":{"phone":"+1-828-652-8168"},"routes":{"out":{"m":438.8,"o":1.92}}},{"id":"n7243491223","name":"Woodlawn Quality Plus","cat":"fuel","sub":"fuel","lat":35.71826,"lon":-82.04062,"tags":{"phone":"+1-828-659-8284"},"routes":{"out":{"m":434.2,"o":1.54}}},{"id":"n7243491221","name":"Sportsman Inn","cat":"lodging","sub":"motel","lat":35.71376,"lon":-82.03691,"tags":{"phone":"+1-828-659-7525"},"routes":{"out":{"m":437.4,"o":1.89}}},{"id":"n6780427533","name":"KG’s Quik Stop","cat":"fuel","sub":"fuel","lat":35.73843,"lon":-82.04922,"tags":{},"routes":{"out":{"m":434.2,"o":0.07}}},{"id":"n9788860728","name":"Clearwater Campground","cat":"camping","sub":"camp_site","lat":35.80264,"lon":-82.08444,"tags":{"phone":"+17046924823"},"routes":{"out":{"m":430.6,"o":2.71}}},{"id":"n7244947910","name":"Woodlawn Motel","cat":"lodging","sub":"motel","lat":35.78286,"lon":-82.04206,"tags":{"phone":"+1-828-756-0070"},"routes":{"out":{"m":431.1,"o":0.04}}},{"id":"n7244947913","name":"Samir's","cat":"fuel","sub":"fuel","lat":35.78621,"lon":-82.04041,"tags":{"phone":"+1-828-756-8053"},"routes":{"out":{"m":430.9,"o":0.02}}},{"id":"n10002025355","name":"Alpine Inn","cat":"lodging","sub":"hotel","lat":35.84064,"lon":-82.09686,"tags":{"phone":"+18287655380","website":"https://www.alpineinnnc.com/"},"routes":{"out":{"m":429.4,"o":4.49}}},{"id":"n6620661358","name":"Switzerland Cafe and General Store","cat":"food","sub":"restaurant","lat":35.849,"lon":-82.09352,"tags":{"phone":"+1 828 765 5289","website":"https://switzerlandcafe.com/","cuisine":"sandwich;american"},"routes":{"out":{"m":429.3,"o":4.68}}},{"id":"n10576069677","name":"The Apple Core Grill","cat":"food","sub":"restaurant","lat":35.87619,"lon":-82.02485,"tags":{},"routes":{"out":{"m":426.4,"o":2.92}}},{"id":"n6761097960","name":"K G's Quik Stop","cat":"fuel","sub":"fuel","lat":35.67745,"lon":-81.99853,"tags":{"phone":"+1-828-659-8648"},"routes":{"out":{"m":438.8,"o":3.7}}},{"id":"n10157352766","name":"Excel","cat":"fuel","sub":"fuel","lat":35.67507,"lon":-81.99445,"tags":{},"routes":{"out":{"m":438.8,"o":3.97}}},{"id":"n8341942176","name":"Bear Creek Marina","cat":"food","sub":"restaurant","lat":35.74915,"lon":-81.96229,"tags":{"phone":"+1-828-655-1400"},"routes":{"out":{"m":433,"o":4.51}}},{"id":"n9790434866","name":"Black Bear Camp Ground","cat":"camping","sub":"camp_site","lat":35.75234,"lon":-81.96312,"tags":{},"routes":{"out":{"m":432.6,"o":4.43}}},{"id":"n8364872100","name":"Cabin at Paddy's Creek","cat":"lodging","sub":"hostel","lat":35.79039,"lon":-81.92426,"tags":{},"routes":{"out":{"m":425.1,"o":4.75}}},{"id":"n10223666489","name":"The Outpost - RV Sites at North Cove","cat":"camping","sub":"camp_site","lat":35.83831,"lon":-81.98896,"tags":{"phone":"+18287567729"},"routes":{"out":{"m":425.8,"o":0.22}}},{"id":"n8421455506","name":"Anchor's Away Cafe' Inc.","cat":"food","sub":"restaurant","lat":35.87995,"lon":-82.05635,"tags":{"phone":"+18285201700"},"routes":{"out":{"m":426.5,"o":4.24}}},{"id":"n10093384201","name":"Mountain River Family Campground","cat":"camping","sub":"camp_site","lat":35.98267,"lon":-82.01458,"tags":{"phone":"+18287654810"},"routes":{"out":{"m":415.2,"o":3.8}}},{"id":"n9739697444","name":"Catawba River Inn","cat":"lodging","sub":"motel","lat":35.88595,"lon":-81.93741,"tags":{"phone":"+18667567001","website":"https://www.catawbariverinn.com/"},"routes":{"out":{"m":421.4,"o":0.04}}},{"id":"n13031949619","name":null,"cat":"camping","sub":"camp_site","lat":35.9029,"lon":-81.89452,"tags":{},"routes":{"out":{"m":420.9,"o":2.43}}},{"id":"n6657842114","name":"Parkview Lodge & Cabins","cat":"lodging","sub":"motel","lat":35.96392,"lon":-81.94682,"tags":{"phone":"+18287654787","website":"https://www.parkviewlodge.com/"},"routes":{"out":{"m":415.5,"o":0.02}}},{"id":"n7175291678","name":"Cross Creek Log Cabins","cat":"lodging","sub":"chalet","lat":35.9551,"lon":-81.93474,"tags":{"phone":"+1-828-765-9701","website":"https://crosscreekcabins.com/"},"routes":{"out":{"m":416.1,"o":0.5}}},{"id":"n6657833507","name":"Linville Falls Lodge & Cottages","cat":"lodging","sub":"chalet","lat":35.95778,"lon":-81.94205,"tags":{"phone":"+1-828-765-2658"},"routes":{"out":{"m":416,"o":0.06}}},{"id":"n6657834680","name":"Famous Louise's Rock House Restaurant","cat":"food","sub":"restaurant","lat":35.95888,"lon":-81.94277,"tags":{"opening_hours":"Mo,We,Th 06:00-20:00; Fr-Sa 06:00-20:30; Su 06:00-19:00","phone":"+1-828-765-2702"},"routes":{"out":{"m":415.9,"o":0.01}}},{"id":"n4497073902","name":null,"cat":"camping","sub":"camp_site","lat":35.90036,"lon":-81.88979,"tags":{},"routes":{"out":{"m":421,"o":2.64}}},{"id":"n11916385172","name":null,"cat":"camping","sub":"camp_site","lat":35.90333,"lon":-81.88435,"tags":{},"routes":{"out":{"m":420.9,"o":2.99}}},{"id":"n4497106714","name":null,"cat":"camping","sub":"camp_site","lat":35.89896,"lon":-81.88002,"tags":{},"routes":{"out":{"m":421,"o":3.16}}},{"id":"n11277905403","name":null,"cat":"camping","sub":"camp_site","lat":35.92203,"lon":-81.88877,"tags":{},"routes":{"out":{"m":418.8,"o":2.68}}},{"id":"n11277905404","name":null,"cat":"camping","sub":"camp_site","lat":35.92368,"lon":-81.88854,"tags":{},"routes":{"out":{"m":418.8,"o":2.7}}},{"id":"n10209600075","name":"Linville River cottages","cat":"lodging","sub":"chalet","lat":35.98993,"lon":-81.9438,"tags":{},"routes":{"out":{"m":413.7,"o":1.01}}},{"id":"n10209607604","name":"Linville River Campground","cat":"camping","sub":"camp_site","lat":36.00103,"lon":-81.93786,"tags":{},"routes":{"out":{"m":413.7,"o":1.53}}},{"id":"n6657978522","name":"Linville River Mercantile","cat":"food","sub":"cafe","lat":36.019,"lon":-81.93062,"tags":{"opening_hours":"We-Sa 11:00-17:00; Su 13:00-17:00","phone":"+1-828-467-8167"},"routes":{"out":{"m":409.8,"o":2.42}}},{"id":"n8476035692","name":"Mountain Mercantile Desserts","cat":"food","sub":"restaurant","lat":36.01898,"lon":-81.93069,"tags":{"phone":"+1-828-467-8167"},"routes":{"out":{"m":409.8,"o":2.43}}},{"id":"n6657982182","name":"The Tin Trout","cat":"food","sub":"restaurant","lat":36.01961,"lon":-81.92563,"tags":{"opening_hours":"We-Sa 11:00-14:00,17:00-20:00","phone":"+1-828-742-1314"},"routes":{"out":{"m":409.7,"o":2.18}}},{"id":"n5933204111","name":"Marathon","cat":"fuel","sub":"fuel","lat":36.08054,"lon":-81.928,"tags":{"brand":"Marathon","opening_hours":"24/7"},"routes":{"out":{"m":406.4,"o":4.33}}},{"id":"n7175364265","name":"New Miyoshi","cat":"food","sub":"restaurant","lat":36.07468,"lon":-81.92388,"tags":{"opening_hours":"Mo-Fr 11:00-20:30; Sa 15:00-20:30; Su 11:00-20:30","phone":"+1-828-733-2808","website":"https://www.newmiyoshi.com/","cuisine":"asian"},"routes":{"out":{"m":406.4,"o":3.92}}},{"id":"n10789308436","name":"Big Mike's Creekside RV Resort","cat":"camping","sub":"caravan_site","lat":36.08006,"lon":-81.9245,"tags":{"phone":"+1-828-897-1289","website":"https://bigmikesrvresort.com/"},"routes":{"out":{"m":406.4,"o":4.15}}},{"id":"n13334743052","name":"Smokey's Fillin Station","cat":"food","sub":"restaurant","lat":36.07132,"lon":-81.872,"tags":{},"routes":{"out":{"m":404.7,"o":1.46}}},{"id":"n5143686894","name":"Subway","cat":"food","sub":"fast_food","lat":36.12903,"lon":-81.84835,"tags":{"brand":"Subway","opening_hours":"Mo-Sa 07:00-21:00; Su 09:00-20:00","phone":"+1 828-898-8544","website":"https://restaurants.subway.com/united-states/nc/banner-elk/3579-tynecastle-hwy","cuisine":"sandwich"},"routes":{"out":{"m":402.3,"o":3.06}}},{"id":"n8473998565","name":"Mildred's Grill","cat":"food","sub":"restaurant","lat":36.09,"lon":-81.83558,"tags":{"phone":"+1-828-733-1058","website":"https://grandfather.com/visit/plan-your-visit/food-picnics/","cuisine":"burger;sandwich;chicken;american;salad"},"routes":{"out":{"m":402.7,"o":0.39}}},{"id":"n4966597304","name":"Alpine Meadow","cat":"camping","sub":"camp_site","lat":36.10577,"lon":-81.81723,"tags":{},"routes":{"out":{"m":400,"o":0.82}}},{"id":"n4966597317","name":"Attic Window","cat":"camping","sub":"camp_site","lat":36.10294,"lon":-81.82043,"tags":{},"routes":{"out":{"m":400,"o":0.83}}},{"id":"n4500114920","name":"Cliffside","cat":"camping","sub":"camp_site","lat":36.10993,"lon":-81.8127,"tags":{},"routes":{"out":{"m":400,"o":0.94}}},{"id":"n4500158047","name":"Raven's Roost","cat":"camping","sub":"camp_site","lat":36.11118,"lon":-81.80861,"tags":{},"routes":{"out":{"m":400,"o":0.98}}},{"id":"n4966597301","name":"Calloway Gap","cat":"camping","sub":"camp_site","lat":36.10884,"lon":-81.81474,"tags":{},"routes":{"out":{"m":400,"o":0.91}}},{"id":"n4500158060","name":"Briar Patch","cat":"camping","sub":"camp_site","lat":36.10928,"lon":-81.80281,"tags":{},"routes":{"out":{"m":399.8,"o":0.87}}},{"id":"n4500055874","name":"Daniel Boone","cat":"camping","sub":"camp_site","lat":36.11117,"lon":-81.79446,"tags":{},"routes":{"out":{"m":396.1,"o":0.75}}},{"id":"n6037880287","name":"McDonald's","cat":"food","sub":"fast_food","lat":36.11795,"lon":-81.83777,"tags":{"brand":"McDonald's","website":"https://www.mcdonalds.com/us/en-us/location/nc/banner-elk/3980-n-caroline-nc-105/17942.html","cuisine":"burger"},"routes":{"out":{"m":402.3,"o":2.13}}},{"id":"n12805329967","name":"Mountain Grounds Coffee","cat":"food","sub":"cafe","lat":36.11808,"lon":-81.83696,"tags":{},"routes":{"out":{"m":402.3,"o":2.13}}},{"id":"n13697279289","name":"Luna Thai Sushi","cat":"food","sub":"restaurant","lat":36.1182,"lon":-81.83665,"tags":{"opening_hours":"Th-Tu 11:30-15:00, 16:30-21:00","phone":"+1-828-783-9284","website":"https://lunathaisushi.com","cuisine":"thai;sushi"},"routes":{"out":{"m":402.3,"o":2.13}}},{"id":"n4500241810","name":"Profile","cat":"camping","sub":"camp_site","lat":36.11773,"lon":-81.81504,"tags":{},"routes":{"out":{"m":400,"o":1.49}}},{"id":"n4499702890","name":"Storyteller Rock","cat":"camping","sub":"camp_site","lat":36.11952,"lon":-81.79438,"tags":{},"routes":{"out":{"m":395.3,"o":0.96}}},{"id":"n4499702906","name":"The Hermitage","cat":"camping","sub":"camp_site","lat":36.11703,"lon":-81.79452,"tags":{},"routes":{"out":{"m":395.3,"o":0.92}}},{"id":"n4499702908","name":"Streamside","cat":"camping","sub":"camp_site","lat":36.1178,"lon":-81.79202,"tags":{},"routes":{"out":{"m":395.3,"o":0.8}}},{"id":"n4499702880","name":"The Refuge","cat":"camping","sub":"camp_site","lat":36.1202,"lon":-81.79374,"tags":{},"routes":{"out":{"m":395.3,"o":0.95}}},{"id":"n4316767632","name":"Old Johns River Road","cat":"camping","sub":"camp_site","lat":36.15016,"lon":-81.73291,"tags":{},"routes":{"out":{"m":390,"o":1.34}}},{"id":"n9690073861","name":"Blue Ridge Vistas Motel","cat":"lodging","sub":"motel","lat":36.11314,"lon":-81.65783,"tags":{},"routes":{"out":{"m":384.9,"o":1.71}}},{"id":"n2385949406","name":"Blowing Rock Cafe","cat":"food","sub":"restaurant","lat":36.13316,"lon":-81.67727,"tags":{},"routes":{"out":{"m":385.8,"o":1.17}}},{"id":"n10103778164","name":"Village Inn of Blowing Rock","cat":"lodging","sub":"motel","lat":36.13185,"lon":-81.6722,"tags":{"phone":"+18282953380"},"routes":{"out":{"m":385.8,"o":1}}},{"id":"n10103778165","name":"Twigs","cat":"food","sub":"restaurant","lat":36.13125,"lon":-81.6723,"tags":{"phone":"+18282955050"},"routes":{"out":{"m":385.8,"o":1.04}}},{"id":"n12915700159","name":"Myers Kitchen and Pantry / Fabled Pizza","cat":"food","sub":"restaurant","lat":36.12829,"lon":-81.67188,"tags":{"phone":"+1 828-414-9737","website":"https://www.fabledpizza.com/","cuisine":"pizza"},"routes":{"out":{"m":385.7,"o":1.17}}},{"id":"n13705724582","name":"The Embers Hotel Restaurant","cat":"food","sub":"restaurant","lat":36.13527,"lon":-81.67849,"tags":{"opening_hours":"We-Th,Su 17:00-20:00; Fr-Sa 17:00-21:00","website":"https://www.hotelembers.com/dine"},"routes":{"out":{"m":385.9,"o":1.14}}},{"id":"n2385949420","name":"The Best Cellar","cat":"food","sub":"restaurant","lat":36.13334,"lon":-81.67615,"tags":{"opening_hours":"Th-Mo 17:30-21:00","phone":"+1-828-295-3466"},"routes":{"out":{"m":385.8,"o":1.11}}},{"id":"n12915174435","name":"Social on Main","cat":"food","sub":"restaurant","lat":36.13559,"lon":-81.67728,"tags":{"opening_hours":"Mo-Tu,Th 07:00-14:00; Fr-Su 07:00-17:00","phone":"+1 828-414-9440","website":"https://socialonmainbr.com/"},"routes":{"out":{"m":385.9,"o":1.08}}},{"id":"n9690073862","name":"Restaurant at Gideon Ridge","cat":"food","sub":"restaurant","lat":36.11631,"lon":-81.65588,"tags":{"phone":"+18282953644"},"routes":{"out":{"m":384.9,"o":1.47}}},{"id":"n9411623681","name":"Speedway","cat":"fuel","sub":"fuel","lat":36.14219,"lon":-81.66903,"tags":{"brand":"Speedway","website":"https://www.speedway.com/locations/NC/Blowing-Rock/7206-Valley-Road"},"routes":{"out":{"m":385.9,"o":0.47}}},{"id":"n10114302499","name":"Birdies","cat":"food","sub":"cafe","lat":36.17674,"lon":-81.64774,"tags":{"opening_hours":"Mo-Fr 07:00-15:00","website":"https://www.birdies.coffee/","cuisine":"coffee_shop"},"routes":{"out":{"m":382.2,"o":1.75}}},{"id":"n5744721908","name":"Goshen Creek","cat":"camping","sub":"camp_site","lat":36.17494,"lon":-81.60965,"tags":{},"routes":{"out":{"m":381.2,"o":0.07}}},{"id":"n11178906308","name":"Pepper's Restaurant and Bar","cat":"food","sub":"restaurant","lat":36.20256,"lon":-81.66019,"tags":{"opening_hours":"Mo-Sa 11:00-21:00; Su 11:00-15:00","phone":"+1-828-262-1250","website":"https://www.peppers-restaurant.com/","cuisine":"burger;salad;sandwich;dessert;cake;american;wings"},"routes":{"out":{"m":379.1,"o":3.06}}},{"id":"n13784036898","name":"Wingstop","cat":"food","sub":"fast_food","lat":36.19698,"lon":-81.65712,"tags":{"brand":"Wingstop","cuisine":"wings"},"routes":{"out":{"m":380.7,"o":2.75}}},{"id":"n13784036899","name":"Tropical Smoothie Cafe","cat":"food","sub":"fast_food","lat":36.19708,"lon":-81.65712,"tags":{"brand":"Tropical Smoothie Cafe","cuisine":"juice"},"routes":{"out":{"m":380.7,"o":2.75}}},{"id":"n11148611013","name":"Hatchet Coffee","cat":"food","sub":"cafe","lat":36.214,"lon":-81.63756,"tags":{"opening_hours":"Mo-Su 07:00-16:00","website":"https://hatchetcoffee.com","cuisine":"coffee_shop;bagel;smoothie;cookie"},"routes":{"out":{"m":378.5,"o":1.95}}},{"id":"n5487401321","name":"Capone's Untouchable Pizza","cat":"food","sub":"restaurant","lat":36.21891,"lon":-81.6628,"tags":{"opening_hours":"Su-Sa 11:00-22:00","phone":"+1-828-265-1886","website":"https://www.caponesuntouchablepizza.com","cuisine":"pizza"},"routes":{"out":{"m":378.5,"o":3.4}}},{"id":"n11249145511","name":"China Wok","cat":"food","sub":"fast_food","lat":36.21979,"lon":-81.66272,"tags":{"brand":"China Wok","opening_hours":"Mo-Sa 10:30-22:00; Su 11:00-22:00","phone":"+1-828-263-0588","cuisine":"chinese;chicken;sushi;japanese;seafood"},"routes":{"out":{"m":378.5,"o":3.4}}},{"id":"n9948057131","name":"Hampton Inn & Suites","cat":"lodging","sub":"hotel","lat":36.22011,"lon":-81.65523,"tags":{"brand":"Hampton Inn & Suites","phone":"+1 828-386-6464","website":"https://www.hilton.com/en/hotels/hkybohx-hampton-suites-boone/"},"routes":{"out":{"m":378.5,"o":3}}},{"id":"n6518976283","name":"Subway","cat":"food","sub":"fast_food","lat":36.22156,"lon":-81.65087,"tags":{"brand":"Subway","opening_hours":"08:30-21:30","phone":"+1 828-268-9300","website":"https://restaurants.subway.com/united-states/nc/boone/1542-b-hwy-421-south","cuisine":"sandwich"},"routes":{"out":{"m":378.5,"o":2.8}}},{"id":"n10567914087","name":"Bald Guy Brew Coffee Roasting Co","cat":"food","sub":"cafe","lat":36.23061,"lon":-81.62995,"tags":{"phone":"+18284141961","cuisine":"coffee_shop"},"routes":{"out":{"m":378.1,"o":2.02}}},{"id":"n9759420005","name":"The Blue Ridge Diner","cat":"food","sub":"restaurant","lat":36.23383,"lon":-81.55602,"tags":{"phone":"+18282651999"},"routes":{"out":{"m":375.1,"o":0.11}}},{"id":"n3121344610","name":"Thompson Sea Food","cat":"food","sub":"restaurant","lat":36.23395,"lon":-81.54671,"tags":{"phone":"+18282654300","cuisine":"regional"},"routes":{"out":{"m":374.5,"o":0.24}}},{"id":"n5300327276","name":"Deep Gap Campsite","cat":"camping","sub":"camp_site","lat":36.22503,"lon":-81.52218,"tags":{},"routes":{"out":{"m":372.8,"o":0.09}}},{"id":"n5300327204","name":"Obids Creek Campsite","cat":"camping","sub":"camp_site","lat":36.28283,"lon":-81.37414,"tags":{},"routes":{"out":{"m":358.2,"o":0.07}}},{"id":"n9759420009","name":"Mountain Aire Seafood & Steaks","cat":"food","sub":"restaurant","lat":36.31647,"lon":-81.36993,"tags":{"phone":"+13369823060"},"routes":{"out":{"m":355.3,"o":0.14}}},{"id":"n9759420010","name":"Marathon Gas","cat":"fuel","sub":"fuel","lat":36.31598,"lon":-81.3699,"tags":{"brand":"Marathon","phone":"+13369824944"},"routes":{"out":{"m":355.3,"o":0.16}}},{"id":"n8289947576","name":"Rodie's Parkway Restaurant","cat":"food","sub":"restaurant","lat":36.3462,"lon":-81.38123,"tags":{"phone":"+13369825400"},"routes":{"out":{"m":353.1,"o":0.34}}},{"id":"n8289947578","name":"Glendale Springs Inn & Restaurant","cat":"food","sub":"restaurant","lat":36.34515,"lon":-81.38102,"tags":{"phone":"+13369823103"},"routes":{"out":{"m":353.1,"o":0.32}}},{"id":"n7627599607","name":"Peaks 61","cat":"camping","sub":"camp_site","lat":36.41186,"lon":-81.37492,"tags":{},"routes":{"out":{"m":351,"o":3.18}}},{"id":"n7627599532","name":"Peaks 61","cat":"camping","sub":"camp_site","lat":36.41712,"lon":-81.37166,"tags":{},"routes":{"out":{"m":350.1,"o":3.49}}},{"id":"n6333784258","name":"Site B","cat":"camping","sub":"camp_site","lat":36.43356,"lon":-81.38318,"tags":{},"routes":{"out":{"m":351,"o":4.75}}},{"id":"n6333784259","name":"Site A","cat":"camping","sub":"camp_site","lat":36.42898,"lon":-81.38086,"tags":{},"routes":{"out":{"m":351,"o":4.41}}},{"id":"n8285292494","name":"Copper Mine Grill","cat":"food","sub":"restaurant","lat":36.39566,"lon":-81.31778,"tags":{"opening_hours":"Mo-Sa 06:00-20:00; Su 08:00-15:00","phone":"+13369822805"},"routes":{"out":{"m":348.7,"o":1.33}}},{"id":"n3363248014","name":"Freeborne's Restaurant","cat":"food","sub":"restaurant","lat":36.3933,"lon":-81.24676,"tags":{"phone":"+13363598008"},"routes":{"out":{"m":342.6,"o":0.17}}},{"id":"n3363248015","name":"Freeborne's Motel","cat":"lodging","sub":"motel","lat":36.39356,"lon":-81.24703,"tags":{},"routes":{"out":{"m":342.6,"o":0.19}}},{"id":"n7627599184","name":"Peaks Groupsite","cat":"camping","sub":"camp_site","lat":36.4164,"lon":-81.36519,"tags":{},"routes":{"out":{"m":349.9,"o":3.29}}},{"id":"n8285329646","name":"Mountain Side Campground & Cabins","cat":"camping","sub":"camp_site","lat":36.40241,"lon":-81.24236,"tags":{"phone":"+13366615367"},"routes":{"out":{"m":342.4,"o":0.78}}},{"id":"n4452962227","name":"Site D","cat":"camping","sub":"camp_site","lat":36.40142,"lon":-81.0889,"tags":{},"routes":{"out":{"m":330.8,"o":2.34}}},{"id":"n8223711984","name":"Sandy Creek Family Campground","cat":"camping","sub":"camp_site","lat":36.37129,"lon":-81.0474,"tags":{"phone":"+1-336-957-8525"},"routes":{"out":{"m":325.9,"o":4.04}}},{"id":"n4315873394","name":"Site E","cat":"camping","sub":"camp_site","lat":36.40573,"lon":-81.08558,"tags":{},"routes":{"out":{"m":327.3,"o":2.13}}},{"id":"n4452960974","name":"Site A","cat":"camping","sub":"camp_site","lat":36.4038,"lon":-81.08444,"tags":{},"routes":{"out":{"m":327.3,"o":2.23}}},{"id":"n4452962228","name":"Site C","cat":"camping","sub":"camp_site","lat":36.402,"lon":-81.08762,"tags":{},"routes":{"out":{"m":330.8,"o":2.35}}},{"id":"n4452962229","name":"Site B","cat":"camping","sub":"camp_site","lat":36.40299,"lon":-81.08715,"tags":{},"routes":{"out":{"m":330.8,"o":2.31}}},{"id":"n195837147","name":"Site F","cat":"camping","sub":"camp_site","lat":36.40925,"lon":-81.08782,"tags":{},"routes":{"out":{"m":330.8,"o":1.95}}},{"id":"n6131379751","name":null,"cat":"camping","sub":"camp_site","lat":36.43874,"lon":-81.09372,"tags":{},"routes":{"out":{"m":329.5,"o":0.19}}},{"id":"n5967250166","name":"Exxon","cat":"fuel","sub":"fuel","lat":36.50663,"lon":-81.12242,"tags":{"brand":"Exxon"},"routes":{"out":{"m":329,"o":4.64}}},{"id":"n5967866324","name":"Golden China","cat":"food","sub":"restaurant","lat":36.50166,"lon":-81.11426,"tags":{"cuisine":"chinese"},"routes":{"out":{"m":329,"o":4.15}}},{"id":"n7001882700","name":"Foley's One Stop","cat":"fuel","sub":"fuel","lat":36.47054,"lon":-81.05808,"tags":{},"routes":{"out":{"m":328,"o":2.12}}},{"id":"n7001882693","name":"Four Brothers","cat":"fuel","sub":"fuel","lat":36.48118,"lon":-81.08658,"tags":{},"routes":{"out":{"m":329,"o":2.48}}},{"id":"n8258327153","name":"Nikolas Restaurant","cat":"food","sub":"restaurant","lat":36.40744,"lon":-80.993,"tags":{"phone":"+13363636060"},"routes":{"out":{"m":325.2,"o":3.11}}},{"id":"n6816265524","name":null,"cat":"fuel","sub":"fuel","lat":36.40493,"lon":-80.98773,"tags":{},"routes":{"out":{"m":325.2,"o":3.45}}},{"id":"n5966907275","name":"Speedway","cat":"fuel","sub":"fuel","lat":36.50824,"lon":-81.12489,"tags":{"brand":"Speedway","website":"https://www.speedway.com/locations/NC/Sparta/306-N-Main-Street"},"routes":{"out":{"m":329,"o":4.8}}},{"id":"n7002615051","name":"Ridgeview Grocery","cat":"fuel","sub":"fuel","lat":36.51007,"lon":-80.95986,"tags":{"phone":"+13366578362"},"routes":{"out":{"m":317.3,"o":0.62}}},{"id":"n7002610373","name":"Saddle Mountain Cafe","cat":"food","sub":"restaurant","lat":36.52119,"lon":-80.95105,"tags":{"phone":"+13366578680"},"routes":{"out":{"m":315.6,"o":0.82}}},{"id":"n12693781657","name":"Citgo","cat":"fuel","sub":"fuel","lat":36.52107,"lon":-80.86519,"tags":{"brand":"Citgo"},"routes":{"out":{"m":312.1,"o":3.28}}},{"id":"n6212093822","name":"Love's","cat":"fuel","sub":"fuel","lat":36.57912,"lon":-80.74051,"tags":{"brand":"Love's"},"routes":{"out":{"m":301.3,"o":3.04}}},{"id":"n11382306074","name":"Subway","cat":"food","sub":"fast_food","lat":36.5795,"lon":-80.74042,"tags":{"brand":"Subway","phone":"+1 276-755-3117","website":"https://restaurants.subway.com/united-states/va/lambsburg/227-old-pipers-gap-road","cuisine":"sandwich"},"routes":{"out":{"m":301.3,"o":3.03}}},{"id":"n12262766883","name":null,"cat":"fuel","sub":"fuel","lat":36.57931,"lon":-80.74119,"tags":{},"routes":{"out":{"m":301.3,"o":3}}},{"id":"n12290497246","name":"McDonald's","cat":"food","sub":"fast_food","lat":36.57944,"lon":-80.74042,"tags":{"brand":"McDonald's","opening_hours":"Mo-Su 05:00-23:00","phone":"+1 276-755-3003","website":"https://www.mcdonalds.com/us/en-us/location/va/lambsburg/227-old-pipers-gap-road/33760.html","cuisine":"burger"},"routes":{"out":{"m":301.3,"o":3.03}}},{"id":"n9105945838","name":"Fancy Gap Cabins and Campground","cat":"camping","sub":"camp_site","lat":36.64052,"lon":-80.72652,"tags":{"website":"https://fancygapcabinsandcampground.com/"},"routes":{"out":{"m":297.1,"o":0.08}}},{"id":"n6223277869","name":"BP","cat":"fuel","sub":"fuel","lat":36.67333,"lon":-80.71315,"tags":{"brand":"BP","opening_hours":"Mo-Sa 05:00-23:00; Su 06:00-23:00","phone":"+1-276-728-2143"},"routes":{"out":{"m":294.5,"o":1.13}}},{"id":"n6223277870","name":null,"cat":"fuel","sub":"fuel","lat":36.67358,"lon":-80.71237,"tags":{},"routes":{"out":{"m":294.5,"o":1.12}}},{"id":"n7595782611","name":"Amoco","cat":"fuel","sub":"fuel","lat":36.66787,"lon":-80.69234,"tags":{"brand":"Amoco"},"routes":{"out":{"m":293.9,"o":0.13}}},{"id":"n12240448956","name":"Lake View Restaurant","cat":"food","sub":"restaurant","lat":36.66757,"lon":-80.69245,"tags":{"website":"https://lakeview.top/","cuisine":"american"},"routes":{"out":{"m":293.9,"o":0.11}}},{"id":"n12240469424","name":"Pit Stop Pasta & Grill","cat":"food","sub":"restaurant","lat":36.67819,"lon":-80.70142,"tags":{"website":"https://www.pitstoppastagrill.com/","cuisine":"pizza;pasta"},"routes":{"out":{"m":294,"o":0.98}}},{"id":"n12291947762","name":"Citgo","cat":"fuel","sub":"fuel","lat":36.71639,"lon":-80.53437,"tags":{"brand":"Citgo"},"routes":{"out":{"m":282.6,"o":4.33}}},{"id":"n12240432201","name":"Crooked Oak Restaurant","cat":"food","sub":"restaurant","lat":36.72247,"lon":-80.61281,"tags":{"cuisine":"southern"},"routes":{"out":{"m":289.3,"o":3.45}}},{"id":"n12349833852","name":"Boyd's Restaurant","cat":"food","sub":"restaurant","lat":36.59913,"lon":-80.51042,"tags":{"cuisine":"american"},"routes":{"out":{"m":283.7,"o":3.27}}},{"id":"n2270909214","name":"Willville Motorcycle Campground","cat":"camping","sub":"camp_site","lat":36.73324,"lon":-80.42717,"tags":{"opening_hours":"Apr-Oct","phone":"+1 276-952-2267","website":"http://www.willvillebikecamp.com"},"routes":{"out":{"m":272.4,"o":0.88}}},{"id":"n10584290813","name":"Jane's Country Cafe","cat":"food","sub":"restaurant","lat":36.73505,"lon":-80.40818,"tags":{"opening_hours":"Mo-We 11:00-16:00; Th-Su 11:00-19:00","phone":"+1-276-952-1112"},"routes":{"out":{"m":272.2,"o":0.16}}},{"id":"n12300577980","name":"Primitive Coffee Farm Market & Bakery","cat":"food","sub":"cafe","lat":36.73538,"lon":-80.4086,"tags":{"opening_hours":"Mo-Su 08:00-15:00","website":"http://www.primitivecoffeemarket.com/","cuisine":"coffee_shop"},"routes":{"out":{"m":272.2,"o":0.14}}},{"id":"n12300577984","name":"Marathon","cat":"fuel","sub":"fuel","lat":36.73516,"lon":-80.40775,"tags":{"brand":"Marathon"},"routes":{"out":{"m":272.2,"o":0.19}}},{"id":"n12300577987","name":"Meadows of Dan Food Market","cat":"fuel","sub":"fuel","lat":36.73541,"lon":-80.40777,"tags":{},"routes":{"out":{"m":272.2,"o":0.19}}},{"id":"n6223082306","name":"Crooked Road Cafe","cat":"food","sub":"cafe","lat":36.73671,"lon":-80.38248,"tags":{},"routes":{"out":{"m":271.2,"o":1.17}}},{"id":"n3195002491","name":"West End Market","cat":"fuel","sub":"fuel","lat":36.90837,"lon":-80.33113,"tags":{},"routes":{"out":{"m":255.3,"o":3.58}}},{"id":"n12207039784","name":"Camino Viejo Mexican Grill","cat":"food","sub":"restaurant","lat":36.92242,"lon":-80.32454,"tags":{"website":"https://caminoviejo2.com/","cuisine":"mexican"},"routes":{"out":{"m":255.3,"o":3.86}}},{"id":"n1888319412","name":null,"cat":"fuel","sub":"fuel","lat":36.78563,"lon":-80.27334,"tags":{},"routes":{"out":{"m":260.7,"o":4.4}}},{"id":"n1517016556","name":"Geraldi's","cat":"food","sub":"restaurant","lat":36.91237,"lon":-80.31681,"tags":{"phone":"+1-540-745-2000","cuisine":"italian"},"routes":{"out":{"m":255.3,"o":3.08}}},{"id":"n3191902385","name":"Exxon","cat":"fuel","sub":"fuel","lat":36.91161,"lon":-80.3161,"tags":{"brand":"Exxon"},"routes":{"out":{"m":255.3,"o":3.02}}},{"id":"n3194800671","name":"El Charro Mexican Grill","cat":"food","sub":"restaurant","lat":36.90971,"lon":-80.31992,"tags":{"cuisine":"mexican"},"routes":{"out":{"m":255.3,"o":3.1}}},{"id":"n11248498172","name":"Blue Ridge Diner","cat":"food","sub":"restaurant","lat":36.91116,"lon":-80.31957,"tags":{"phone":"+1-540-745-3463","cuisine":"american"},"routes":{"out":{"m":255.3,"o":3.15}}},{"id":"n12117944738","name":"Dogtown Roadhouse","cat":"food","sub":"restaurant","lat":36.90977,"lon":-80.31982,"tags":{"cuisine":"pizza"},"routes":{"out":{"m":255.3,"o":3.1}}},{"id":"n6303236032","name":"Parkway Grille","cat":"food","sub":"restaurant","lat":36.91478,"lon":-80.32023,"tags":{"phone":"+1-540-745-4770","website":"https://m.facebook.com/parkwaygrilleva/"},"routes":{"out":{"m":255.3,"o":3.33}}},{"id":"n12206014396","name":"Casey's Pizza House","cat":"food","sub":"restaurant","lat":36.91518,"lon":-80.31103,"tags":{"website":"https://www.caseyspizzahouse.com/","cuisine":"pizza"},"routes":{"out":{"m":255.3,"o":2.98}}},{"id":"n2573754985","name":null,"cat":"fuel","sub":"fuel","lat":36.95216,"lon":-80.257,"tags":{},"routes":{"out":{"m":252.1,"o":3.38}}},{"id":"n9269937794","name":"Speedway","cat":"fuel","sub":"fuel","lat":37.22566,"lon":-80.01144,"tags":{"brand":"Speedway","website":"https://www.speedway.com/locations/VA/Roanoke/4350-Brambleton-Ave-Sw"},"routes":{"out":{"m":219.6,"o":1.98},"retFast":{"m":334.4,"o":4.84}}},{"id":"n5512714357","name":null,"cat":"fuel","sub":"fuel","lat":37.2342,"lon":-80.00714,"tags":{},"routes":{"out":{"m":219.6,"o":2.57},"retFast":{"m":334.4,"o":4.3}}},{"id":"n5512714358","name":null,"cat":"fuel","sub":"fuel","lat":37.2349,"lon":-80.00654,"tags":{},"routes":{"out":{"m":219.6,"o":2.62},"retFast":{"m":334.4,"o":4.24}}},{"id":"n11394141990","name":"Domino's","cat":"food","sub":"fast_food","lat":37.20239,"lon":-80.0002,"tags":{"brand":"Domino's","opening_hours":"Mo-Th 10:00-23:00; Fr-Sa 10:00-24:00; Su 10:00-23:00","phone":"+1 540-900-0123","website":"https://pizza.dominos.com/virginia/roanoke/6405-merriman-rd","cuisine":"pizza"},"routes":{"out":{"m":219.3,"o":0.53}}},{"id":"n2869088762","name":"Shell","cat":"fuel","sub":"fuel","lat":37.22167,"lon":-79.98631,"tags":{"brand":"Shell","opening_hours":"24/7"},"routes":{"out":{"m":216.6,"o":1.52},"retFast":{"m":334.4,"o":4.07}}},{"id":"n2888093566","name":"Exxon Fuel","cat":"fuel","sub":"fuel","lat":37.22487,"lon":-79.98296,"tags":{"brand":"Exxon"},"routes":{"out":{"m":216.5,"o":1.55},"retFast":{"m":334.4,"o":3.79}}},{"id":"n2899495883","name":"Shell","cat":"fuel","sub":"fuel","lat":37.22526,"lon":-79.98124,"tags":{"brand":"Shell"},"routes":{"out":{"m":216.5,"o":1.51},"retFast":{"m":334.4,"o":3.71}}},{"id":"n2868835431","name":"Taco Bell","cat":"food","sub":"fast_food","lat":37.22278,"lon":-79.96765,"tags":{"brand":"Taco Bell","opening_hours":"Mo-Th 07:00-01:00; Fr-Sa 07:00-02:00; Su 07:00-01:00","phone":"+1 540-989-9523","website":"https://locations.tacobell.com/va/roanoke/4220-franklin-rd-sw.html","cuisine":"tex-mex"},"routes":{"out":{"m":216.5,"o":1.04},"retFast":{"m":334.4,"o":3.49}}},{"id":"n2868835709","name":"Hank's Pizza & Subs","cat":"food","sub":"restaurant","lat":37.22406,"lon":-79.96749,"tags":{"cuisine":"pizza"},"routes":{"out":{"m":216.5,"o":1.13},"retFast":{"m":334.4,"o":3.41}}},{"id":"n3075914520","name":"Pizza Hut","cat":"food","sub":"restaurant","lat":37.22273,"lon":-79.96763,"tags":{"brand":"Pizza Hut","website":"https://locations.pizzahut.com/va/roanoke/4220-franklin-rd-sw","cuisine":"pizza"},"routes":{"out":{"m":216.5,"o":1.04},"retFast":{"m":334.4,"o":3.5}}},{"id":"n3075914522","name":"El Rio Mexican Grill","cat":"food","sub":"restaurant","lat":37.22412,"lon":-79.96738,"tags":{"cuisine":"mexican"},"routes":{"out":{"m":216.5,"o":1.13},"retFast":{"m":334.4,"o":3.4}}},{"id":"n2868849407","name":"Outback Steakhouse","cat":"food","sub":"restaurant","lat":37.22085,"lon":-79.96652,"tags":{"brand":"Outback Steakhouse","cuisine":"american;steak"},"routes":{"out":{"m":216.5,"o":0.9},"retFast":{"m":334.4,"o":3.59}}},{"id":"n5512741115","name":"Bojangles'","cat":"food","sub":"fast_food","lat":37.2197,"lon":-79.96549,"tags":{"brand":"Bojangles'","phone":"+1 540-206-2711","website":"https://locations.bojangles.com/va/roanoke/4440-franklin-road.html","cuisine":"chicken"},"routes":{"out":{"m":216.5,"o":0.81},"retFast":{"m":334.4,"o":3.65}}},{"id":"n9727943800","name":"Honestly Vegan","cat":"food","sub":"restaurant","lat":37.22781,"lon":-79.97,"tags":{},"routes":{"out":{"m":216.5,"o":1.41},"retFast":{"m":334.4,"o":3.24}}},{"id":"n2328558357","name":"Taste of Asia","cat":"food","sub":"restaurant","lat":37.23574,"lon":-79.9705,"tags":{"cuisine":"asian"},"routes":{"out":{"m":214.6,"o":1.79},"retFast":{"m":334.4,"o":2.78}}},{"id":"n2797886232","name":"Tokyo","cat":"food","sub":"restaurant","lat":37.23446,"lon":-79.9718,"tags":{"cuisine":"japanese"},"routes":{"out":{"m":214.8,"o":1.8},"retFast":{"m":334.4,"o":2.89}}},{"id":"n2868652136","name":"Dunkin'","cat":"food","sub":"fast_food","lat":37.23505,"lon":-79.96982,"tags":{"brand":"Dunkin'","opening_hours":"Mo-Fr 05:30-19:00; Sa-Su 06:00-19:00","phone":"+1 540-343-3170","website":"https://locations.dunkindonuts.com/en/va/roanoke/3620-franklin-rd-sw/301797","cuisine":"donut;coffee_shop"},"routes":{"out":{"m":214.7,"o":1.73},"retFast":{"m":334.4,"o":2.8}}},{"id":"n2868914896","name":"Shell","cat":"fuel","sub":"fuel","lat":37.23473,"lon":-79.97027,"tags":{"brand":"Shell"},"routes":{"out":{"m":214.7,"o":1.74},"retFast":{"m":334.4,"o":2.83}}},{"id":"n12001177306","name":"Sonic","cat":"food","sub":"fast_food","lat":37.23665,"lon":-79.97002,"tags":{"brand":"Sonic","cuisine":"burger"},"routes":{"out":{"m":214.6,"o":1.8},"retFast":{"m":334.4,"o":2.71}}},{"id":"n11944729416","name":"Dunkin'","cat":"food","sub":"fast_food","lat":37.25067,"lon":-80.03784,"tags":{"brand":"Dunkin'","opening_hours":"06:00-20:00","phone":"+1 540-772-3951","website":"https://locations.dunkindonuts.com/en/va/roanoke/5044-keagy-rd/346485","cuisine":"donut;coffee_shop"},"routes":{"out":{"m":220.8,"o":3.81},"retFast":{"m":322.3,"o":4.1}}},{"id":"n11944729417","name":"Domino's","cat":"food","sub":"fast_food","lat":37.25068,"lon":-80.03791,"tags":{"brand":"Domino's","opening_hours":"Mo-Th 10:00-23:00; Fr-Sa 10:00-24:00; Su 10:00-23:00","phone":"+1 540-900-2323","website":"https://pizza.dominos.com/virginia/roanoke/5044-keagy-rd","cuisine":"pizza"},"routes":{"out":{"m":220.8,"o":3.81},"retFast":{"m":322.3,"o":4.1}}},{"id":"n12349703901","name":"Kroger","cat":"fuel","sub":"fuel","lat":37.26452,"lon":-80.03365,"tags":{"brand":"Kroger"},"routes":{"out":{"m":220.1,"o":4.73},"retFast":{"m":322.8,"o":3.5}}},{"id":"n12349703935","name":"Papa's Pizza","cat":"food","sub":"fast_food","lat":37.26378,"lon":-80.03374,"tags":{"opening_hours":"Tu-Su 10:30-20:45","phone":"+1 540-900-0197","website":"https://www.papaspizzaofsalem.com/","cuisine":"pizza"},"routes":{"out":{"m":220.1,"o":4.68},"retFast":{"m":322.8,"o":3.53}}},{"id":"n3158880354","name":"Exxon","cat":"fuel","sub":"fuel","lat":37.24363,"lon":-80.02835,"tags":{"brand":"Exxon"},"routes":{"out":{"m":220.1,"o":3.26},"retFast":{"m":322.3,"o":4.8}}},{"id":"n11944729415","name":"McDonald's","cat":"food","sub":"fast_food","lat":37.2451,"lon":-80.03176,"tags":{"brand":"McDonald's","opening_hours":"07:00-22:00","phone":"+1 540-774-5248","website":"https://www.mcdonalds.com/us/en-us/location/16929.html","cuisine":"burger"},"routes":{"out":{"m":220.1,"o":3.4},"retFast":{"m":322.3,"o":4.61}}},{"id":"n13411598727","name":"Famous Anthony's","cat":"food","sub":"restaurant","lat":37.24683,"lon":-80.02992,"tags":{"cuisine":"american"},"routes":{"out":{"m":220.1,"o":3.49},"retFast":{"m":322.3,"o":4.57}}},{"id":"n2899236354","name":"Sakura Japanese Steakhouse","cat":"food","sub":"restaurant","lat":37.26478,"lon":-80.01944,"tags":{"cuisine":"japanese"},"routes":{"out":{"m":220.1,"o":4.68},"retFast":{"m":330.7,"o":3.89}}},{"id":"n2868611652","name":null,"cat":"fuel","sub":"fuel","lat":37.24177,"lon":-79.99405,"tags":{},"routes":{"out":{"m":216.5,"o":2.85},"retFast":{"m":334.4,"o":3.41}}},{"id":"n9060738750","name":null,"cat":"fuel","sub":"fuel","lat":37.26192,"lon":-80.00031,"tags":{},"routes":{"out":{"m":214.6,"o":4.18},"retFast":{"m":334.4,"o":3.22}}},{"id":"n2957442391","name":"BP Fuel","cat":"fuel","sub":"fuel","lat":37.25444,"lon":-79.98985,"tags":{},"routes":{"out":{"m":214.6,"o":3.41},"retFast":{"m":334.4,"o":2.79}}},{"id":"n2868912522","name":"Valero Fuel","cat":"fuel","sub":"fuel","lat":37.2446,"lon":-79.96305,"tags":{},"routes":{"out":{"m":214.5,"o":1.89},"retFast":{"m":334.4,"o":2.04}}},{"id":"n2370784288","name":"Kroger","cat":"fuel","sub":"fuel","lat":37.25617,"lon":-79.95862,"tags":{"brand":"Kroger","website":"https://www.kroger.com/stores/grocery/va/roanoke/towers/029/00400"},"routes":{"out":{"m":214.3,"o":2.39},"retFast":{"m":334.4,"o":1.26}}},{"id":"n9077277911","name":null,"cat":"fuel","sub":"fuel","lat":37.28502,"lon":-79.96742,"tags":{},"routes":{"out":{"m":214.3,"o":4.41},"retFast":{"m":331.5,"o":0.97}}},{"id":"n1786898279","name":"Fork in the Alley","cat":"food","sub":"restaurant","lat":37.24918,"lon":-79.94671,"tags":{"cuisine":"burger;pizza"},"routes":{"out":{"m":214.3,"o":1.69},"retFast":{"m":334.4,"o":1.4}}},{"id":"n1786898280","name":"The River and Rail","cat":"food","sub":"restaurant","lat":37.24867,"lon":-79.94675,"tags":{},"routes":{"out":{"m":214.3,"o":1.66},"retFast":{"m":334.4,"o":1.44}}},{"id":"n2368432345","name":"China Taste","cat":"food","sub":"restaurant","lat":37.25086,"lon":-79.91821,"tags":{"cuisine":"chinese"},"routes":{"out":{"m":211.7,"o":1.46},"retFast":{"m":334.6,"o":1.71}}},{"id":"n6969658784","name":"Domino's","cat":"food","sub":"fast_food","lat":37.25094,"lon":-79.91789,"tags":{"brand":"Domino's","opening_hours":"Mo-Th 10:00-24:00; Fr-Sa 10:00-01:00; Su 10:00-24:00","phone":"+1 540-595-0675","website":"https://pizza.dominos.com/virginia/roanoke/2161-bennington-se","cuisine":"pizza"},"routes":{"out":{"m":211.7,"o":1.45},"retFast":{"m":334.6,"o":1.71}}},{"id":"n11293368564","name":"Sidecar","cat":"food","sub":"restaurant","lat":37.27012,"lon":-79.94257,"tags":{"website":"https://www.sidecarva.com/","cuisine":"polish;german;american"},"routes":{"out":{"m":214.2,"o":3.07},"retFast":{"m":334.3,"o":0.01}}},{"id":"n11293368565","name":"Fortunato","cat":"food","sub":"restaurant","lat":37.27111,"lon":-79.94254,"tags":{"website":"https://www.fortunatoroanoke.com/","cuisine":"italian"},"routes":{"out":{"m":214.2,"o":3.13},"retFast":{"m":334.3,"o":0.02}}},{"id":"n11293368568","name":"Lucky","cat":"food","sub":"restaurant","lat":37.27109,"lon":-79.94141,"tags":{"cuisine":"tapas"},"routes":{"out":{"m":214.2,"o":3.13},"retFast":{"m":334.1,"o":0.01}}},{"id":"n1782797032","name":"Norah's Cafe","cat":"food","sub":"cafe","lat":37.27261,"lon":-79.93787,"tags":{},"routes":{"out":{"m":214.2,"o":3.22},"retFast":{"m":333.8,"o":0.01}}},{"id":"n1784359490","name":"Fork in the Market","cat":"food","sub":"restaurant","lat":37.27227,"lon":-79.93899,"tags":{"cuisine":"burger;pizza"},"routes":{"out":{"m":214.2,"o":3.2},"retFast":{"m":333.9,"o":0.01}}},{"id":"n2368760368","name":"Citgo","cat":"fuel","sub":"fuel","lat":37.26713,"lon":-79.93526,"tags":{"brand":"Citgo"},"routes":{"out":{"m":214.2,"o":2.85},"retFast":{"m":334.6,"o":0.24}}},{"id":"n4879959793","name":"Frankie Rowland's Steakhouse","cat":"food","sub":"restaurant","lat":37.27227,"lon":-79.9404,"tags":{"website":"https://frankierowlandssteakhouse.com/","cuisine":"steak_house"},"routes":{"out":{"m":214.2,"o":3.2},"retFast":{"m":334,"o":0.01}}},{"id":"n10077527738","name":"The Hatch","cat":"food","sub":"restaurant","lat":37.27214,"lon":-79.9392,"tags":{"phone":"+15405664058","website":"https://www.thehatchroanoke.com/","cuisine":"american"},"routes":{"out":{"m":214.2,"o":3.19},"retFast":{"m":333.9,"o":0.02}}},{"id":"n11044277247","name":"Ursula's","cat":"food","sub":"cafe","lat":37.26945,"lon":-79.94077,"tags":{"website":"https://www.ursulascafe.org/"},"routes":{"out":{"m":214.2,"o":3.01},"retFast":{"m":334.5,"o":0.01}}},{"id":"n11293368567","name":"Crescent City BBQ","cat":"food","sub":"restaurant","lat":37.27232,"lon":-79.93961,"tags":{"website":"https://www.crescentcitybourbonbbq.com/","cuisine":"barbecue"},"routes":{"out":{"m":214.2,"o":3.21},"retFast":{"m":333.9,"o":0.01}}},{"id":"n11307797990","name":"Billy's","cat":"food","sub":"restaurant","lat":37.27254,"lon":-79.9389,"tags":{"cuisine":"american"},"routes":{"out":{"m":214.2,"o":3.22},"retFast":{"m":333.9,"o":0.01}}},{"id":"n10798212538","name":"Bethlehem Restaurant & Grocery","cat":"food","sub":"restaurant","lat":37.28745,"lon":-79.93341,"tags":{"website":"https://www.facebook.com/people/Bethlehem-Restaurant-Grocery/100057413081468/","cuisine":"mediterranean"},"routes":{"out":{"m":205.3,"o":3.38},"retFast":{"m":336,"o":0.3}}},{"id":"n9269935161","name":"Speedway","cat":"fuel","sub":"fuel","lat":37.27649,"lon":-79.90485,"tags":{"brand":"Speedway"},"routes":{"out":{"m":205.3,"o":2.24},"retFast":{"m":335.2,"o":1.66}}},{"id":"n9269914772","name":"Speedway","cat":"fuel","sub":"fuel","lat":37.2898,"lon":-79.91028,"tags":{"brand":"Speedway","website":"https://www.speedway.com/locations/VA/Roanoke/2121-Orange-Ave-Ne"},"routes":{"out":{"m":205.3,"o":2.1},"retFast":{"m":336,"o":1.58}}},{"id":"n2308936180","name":"Abuelo's","cat":"food","sub":"restaurant","lat":37.30412,"lon":-79.96115,"tags":{"cuisine":"mexican"},"routes":{"out":{"m":205.2,"o":4.85},"retFast":{"m":337.8,"o":0.26}}},{"id":"n6399810386","name":"Sbarro","cat":"food","sub":"fast_food","lat":37.30341,"lon":-79.96334,"tags":{"brand":"Sbarro","cuisine":"pizza"},"routes":{"out":{"m":205.2,"o":4.97},"retFast":{"m":337.9,"o":0.15}}},{"id":"n2679198384","name":"Starbucks","cat":"food","sub":"cafe","lat":37.30233,"lon":-79.95853,"tags":{"brand":"Starbucks","phone":"+1 540-366-1957","website":"https://www.starbucks.com/store-locator/store/8597/valley-view-4801-valley-view-blvd-nw-suite-g-roanoke-va-240122","cuisine":"coffee_shop"},"routes":{"out":{"m":205.2,"o":4.7},"retFast":{"m":337.6,"o":0.26}}},{"id":"n2679200630","name":"O'Charley's","cat":"food","sub":"restaurant","lat":37.30166,"lon":-79.95791,"tags":{"brand":"O'Charley's","cuisine":"american"},"routes":{"out":{"m":205.2,"o":4.66},"retFast":{"m":337.6,"o":0.25}}},{"id":"n2679208089","name":"Chick-fil-A","cat":"food","sub":"fast_food","lat":37.30331,"lon":-79.95947,"tags":{"brand":"Chick-fil-A","opening_hours":"Mo-Sa 06:30-22:00; Su off","phone":"+1 540-362-1160","website":"https://www.chick-fil-a.com/locations/va/valley-view-boulevard","cuisine":"chicken"},"routes":{"out":{"m":205.2,"o":4.75},"retFast":{"m":337.7,"o":0.28}}},{"id":"n2691248275","name":"Murphy USA","cat":"fuel","sub":"fuel","lat":37.30226,"lon":-79.96047,"tags":{"brand":"Murphy USA"},"routes":{"out":{"m":205.2,"o":4.8},"retFast":{"m":337.7,"o":0.19}}},{"id":"n11064107961","name":"Chipotle","cat":"food","sub":"fast_food","lat":37.30083,"lon":-79.95719,"tags":{"brand":"Chipotle","phone":"+1 540-904-1615","website":"https://locations.chipotle.com/va/roanoke/4753-valley-view-blvd-nw","cuisine":"mexican"},"routes":{"out":{"m":205.2,"o":4.62},"retFast":{"m":337.5,"o":0.23}}},{"id":"n3128717903","name":"Shell","cat":"fuel","sub":"fuel","lat":37.31598,"lon":-79.95517,"tags":{"brand":"Shell"},"routes":{"out":{"m":205.2,"o":4.68},"retFast":{"m":338.3,"o":1.1}}},{"id":"n8222720129","name":"Bjs Gas","cat":"fuel","sub":"fuel","lat":37.31561,"lon":-79.9596,"tags":{"brand":"BJ's Wholesale Club"},"routes":{"out":{"m":205.2,"o":4.9},"retFast":{"m":338.4,"o":0.9}}},{"id":"n2691616807","name":"GoMart","cat":"fuel","sub":"fuel","lat":37.30318,"lon":-79.94399,"tags":{},"routes":{"out":{"m":205.2,"o":3.91},"retFast":{"m":336.8,"o":0.71}}},{"id":"n12254368438","name":"7-Eleven","cat":"fuel","sub":"fuel","lat":37.30354,"lon":-79.94494,"tags":{"brand":"7-Eleven","website":"https://www.7-eleven.com/locations/va/roanoke/3602-williamson-nw-11974"},"routes":{"out":{"m":205.2,"o":3.96},"retFast":{"m":336.9,"o":0.71}}},{"id":"n5337815303","name":"Spirit","cat":"fuel","sub":"fuel","lat":37.21151,"lon":-79.79891,"tags":{},"routes":{"out":{"m":208.5,"o":4.78}}},{"id":"n3075917456","name":null,"cat":"fuel","sub":"fuel","lat":37.27338,"lon":-79.89371,"tags":{},"routes":{"out":{"m":209.2,"o":1.69},"retFast":{"m":335.2,"o":2.29}}},{"id":"n3075917448","name":"Kroger","cat":"fuel","sub":"fuel","lat":37.27283,"lon":-79.8875,"tags":{"brand":"Kroger","website":"https://www.kroger.com/stores/grocery/va/vinton/vinton/029/00322"},"routes":{"out":{"m":209.2,"o":1.4},"retFast":{"m":335.2,"o":2.63}}},{"id":"n6285032307","name":null,"cat":"fuel","sub":"fuel","lat":37.28124,"lon":-79.8974,"tags":{},"routes":{"out":{"m":205.3,"o":1.71},"retFast":{"m":335.2,"o":2.1}}},{"id":"n6760099525","name":null,"cat":"fuel","sub":"fuel","lat":37.26772,"lon":-79.86594,"tags":{},"routes":{"out":{"m":208.2,"o":0.5},"retFast":{"m":335.2,"o":3.85}}},{"id":"n2945979244","name":"Country Crossing Fuel","cat":"fuel","sub":"fuel","lat":37.27801,"lon":-79.87084,"tags":{"brand":"Shell"},"routes":{"out":{"m":207.5,"o":0.87},"retFast":{"m":335.2,"o":3.53}}},{"id":"n2945979247","name":"Pizza Hut Express","cat":"food","sub":"fast_food","lat":37.27782,"lon":-79.87046,"tags":{"brand":"Pizza Hut","website":"https://locations.pizzahut.com/va/vinton/1918-washington-avenue","cuisine":"pizza"},"routes":{"out":{"m":207.5,"o":0.84},"retFast":{"m":335.2,"o":3.56}}},{"id":"n2945979248","name":"Taco Bell","cat":"food","sub":"fast_food","lat":37.27782,"lon":-79.87054,"tags":{"brand":"Taco Bell","opening_hours":"09:00-23:00","phone":"+1 540-566-3111","website":"https://locations.tacobell.com/va/vinton/1918-washington-avenue.html","cuisine":"tex-mex"},"routes":{"out":{"m":207.5,"o":0.85},"retFast":{"m":335.2,"o":3.55}}},{"id":"n288558712","name":null,"cat":"fuel","sub":"fuel","lat":37.27942,"lon":-79.86487,"tags":{},"routes":{"out":{"m":207.5,"o":0.56},"retFast":{"m":335.2,"o":3.87}}},{"id":"n11394142329","name":"Taco Bell","cat":"food","sub":"fast_food","lat":37.27967,"lon":-79.867,"tags":{"brand":"Taco Bell","opening_hours":"Mo-Sa 07:00-01:00; Su 07:00-23:00","phone":"+1 540-566-3111","website":"https://locations.tacobell.com/va/vinton/1918-washington-avenue.html","cuisine":"tex-mex"},"routes":{"out":{"m":207.5,"o":0.68},"retFast":{"m":335.2,"o":3.75}}},{"id":"n11944729443","name":"Domino's","cat":"food","sub":"fast_food","lat":37.27973,"lon":-79.86295,"tags":{"brand":"Domino's","opening_hours":"Mo-Th 10:00-23:00; Fr-Sa 10:00-24:00; Su 10:00-23:00","phone":"+1 540-491-9991","website":"https://pizza.dominos.com/virginia/vinton/2445-e-washington-ave-101","cuisine":"pizza"},"routes":{"out":{"m":207.4,"o":0.46},"retFast":{"m":335.2,"o":3.97}}},{"id":"n13302412932","name":"525 Shawarma","cat":"food","sub":"restaurant","lat":37.27983,"lon":-79.86285,"tags":{"opening_hours":"Mo-Sa 10:00-22:00; Su 13:00-20:00"},"routes":{"out":{"m":207.4,"o":0.46},"retFast":{"m":335.2,"o":3.98}}},{"id":"n11394142324","name":"Exxon","cat":"fuel","sub":"fuel","lat":37.27099,"lon":-79.80748,"tags":{"brand":"Exxon"},"routes":{"out":{"m":207,"o":2.62}}},{"id":"n2767079226","name":"Wendy's","cat":"food","sub":"fast_food","lat":37.30577,"lon":-79.88919,"tags":{"brand":"Wendy's","opening_hours":"09:00-22:00","phone":"+1 540-982-5652","website":"https://locations.wendys.com/united-states/va/roanoke/3555-orange-avenue","cuisine":"burger"},"routes":{"out":{"m":205.2,"o":1.03},"retFast":{"m":336.2,"o":3.02}}},{"id":"n2953536290","name":"Jimmy John's","cat":"food","sub":"fast_food","lat":37.30818,"lon":-79.88833,"tags":{"brand":"Jimmy John's","cuisine":"sandwich"},"routes":{"out":{"m":205.2,"o":1.08},"retFast":{"m":336.2,"o":3.13}}},{"id":"n3158861336","name":null,"cat":"fuel","sub":"fuel","lat":37.30984,"lon":-79.88582,"tags":{},"routes":{"out":{"m":204.8,"o":1.02},"retFast":{"m":336.2,"o":3.3}}},{"id":"n2953470048","name":"Kroger","cat":"fuel","sub":"fuel","lat":37.31276,"lon":-79.88174,"tags":{"brand":"Kroger","website":"https://www.kroger.com/stores/grocery/va/roanoke/bonsack/029/00391"},"routes":{"out":{"m":204.6,"o":0.93},"retFast":{"m":336.2,"o":3.59}}},{"id":"n4313557014","name":"Cafe Asia","cat":"food","sub":"restaurant","lat":37.31428,"lon":-79.88013,"tags":{"phone":"+1-540-206-2298","website":"https://www.cafeasiaroanoke.com/","cuisine":"asian"},"routes":{"out":{"m":204.5,"o":0.91},"retFast":{"m":336.2,"o":3.72}}},{"id":"n4313673089","name":"Sal's Italian Restaurant","cat":"food","sub":"restaurant","lat":37.31403,"lon":-79.87973,"tags":{"phone":"+1-540-904-7767","website":"https://www.salsinroanoke.com/","cuisine":"italian"},"routes":{"out":{"m":204.5,"o":0.88},"retFast":{"m":336.2,"o":3.73}}},{"id":"n11394142454","name":"Domino's","cat":"food","sub":"fast_food","lat":37.31359,"lon":-79.87976,"tags":{"brand":"Domino's","opening_hours":"Mo-Th 10:00-24:00; Fr-Sa 10:00-01:00; Su 10:00-24:00","phone":"+1 540-982-1555","website":"https://pizza.dominos.com/virginia/roanoke/3940-valley-gateway-blvd-suite-a-5","cuisine":"pizza"},"routes":{"out":{"m":204.5,"o":0.87},"retFast":{"m":336.2,"o":3.71}}},{"id":"n11614828542","name":"Nahkonthai Cuisine","cat":"food","sub":"restaurant","lat":37.34232,"lon":-79.87852,"tags":{"cuisine":"thai"},"routes":{"out":{"m":202.6,"o":1.51},"retFast":{"m":346.3,"o":2.89}}},{"id":"n4313557012","name":"Sonic","cat":"food","sub":"fast_food","lat":37.32306,"lon":-79.87233,"tags":{"brand":"Sonic","opening_hours":"Mo-Fr 07:30-23:00; Sa-Su 08:30-23:00","website":"https://locations.sonicdrivein.com/va/roanoke/4504-challenger-avenue.html","cuisine":"burger"},"routes":{"out":{"m":203.2,"o":0.8},"retFast":{"m":345.9,"o":4.11}}},{"id":"n4313557013","name":"Applebee's","cat":"food","sub":"restaurant","lat":37.32261,"lon":-79.87285,"tags":{"brand":"Applebee's Neighborhood Grill & Bar","phone":"+1-540-977-0251","website":"https://restaurants.applebees.com/en-us/va/roanoke/4510-challenger-avenue-83048","cuisine":"american"},"routes":{"out":{"m":203.2,"o":0.83},"retFast":{"m":345.9,"o":4.11}}},{"id":"n11394142323","name":"Mobil","cat":"fuel","sub":"fuel","lat":37.27018,"lon":-79.7928,"tags":{"brand":"Mobil"},"routes":{"out":{"m":207,"o":3.41}}},{"id":"n2953625942","name":"Exxon","cat":"fuel","sub":"fuel","lat":37.35505,"lon":-79.93002,"tags":{"brand":"Exxon","opening_hours":"Mo-Su 06:00-24:00","phone":"+1 540-265-2666","website":"https://www.exxon.com/en/find-station/200316474"},"routes":{"out":{"m":202.7,"o":4.42},"retFast":{"m":345.2,"o":0.72}}},{"id":"n12362014665","name":null,"cat":"fuel","sub":"fuel","lat":37.38657,"lon":-79.90375,"tags":{},"routes":{"out":{"m":198.5,"o":3.47},"retFast":{"m":347.4,"o":0.08}}},{"id":"n12362014666","name":null,"cat":"fuel","sub":"fuel","lat":37.38652,"lon":-79.90341,"tags":{},"routes":{"out":{"m":198.5,"o":3.46},"retFast":{"m":347.4,"o":0.1}}},{"id":"n5719473822","name":null,"cat":"fuel","sub":"fuel","lat":37.39622,"lon":-79.90951,"tags":{},"routes":{"out":{"m":198.5,"o":3.87},"retFast":{"m":347.9,"o":0.46}}},{"id":"n7065238689","name":"Three Li'l Pigs BBQ","cat":"food","sub":"restaurant","lat":37.39584,"lon":-79.91055,"tags":{"phone":"+1-540-966-0165","cuisine":"barbecue"},"routes":{"out":{"m":198.5,"o":3.92},"retFast":{"m":347.9,"o":0.5}}},{"id":"n5719473617","name":"bp","cat":"fuel","sub":"fuel","lat":37.39293,"lon":-79.9065,"tags":{"brand":"BP"},"routes":{"out":{"m":198.5,"o":3.67},"retFast":{"m":347.8,"o":0.22}}},{"id":"n5719473618","name":"GB","cat":"fuel","sub":"fuel","lat":37.39334,"lon":-79.90599,"tags":{},"routes":{"out":{"m":198.5,"o":3.64},"retFast":{"m":347.8,"o":0.2}}},{"id":"n7241389772","name":"Pancho Mexican Restaurant","cat":"food","sub":"restaurant","lat":37.39207,"lon":-79.90563,"tags":{"phone":"+1 540 591 5274","website":"https://www.facebook.com/panchomexican/","cuisine":"mexican"},"routes":{"out":{"m":198.5,"o":3.61},"retFast":{"m":347.7,"o":0.15}}},{"id":"n7658947713","name":"Guardian","cat":"fuel","sub":"fuel","lat":37.40872,"lon":-79.91383,"tags":{},"routes":{"out":{"m":197.8,"o":4.26},"retFast":{"m":348.6,"o":1.04}}},{"id":"n13368577420","name":"One Love Coffee House","cat":"food","sub":"cafe","lat":37.35581,"lon":-79.88563,"tags":{},"routes":{"out":{"m":202.1,"o":2.28},"retFast":{"m":346.5,"o":1.96}}},{"id":"n9849105972","name":"Subway","cat":"food","sub":"fast_food","lat":37.38876,"lon":-79.90078,"tags":{"brand":"Subway","opening_hours":"09:00-23:00","phone":"+1 540-966-3178","website":"https://restaurants.subway.com/united-states/va/troutville/2966-lee-hwy","cuisine":"sandwich"},"routes":{"out":{"m":198.5,"o":3.32},"retFast":{"m":347.6,"o":0.18}}},{"id":"n12065324747","name":"Itallian Bella","cat":"food","sub":"restaurant","lat":37.38537,"lon":-79.90119,"tags":{"phone":"+1-540-966-5980","website":"https://www.italianbellapizza.com/","cuisine":"pizza"},"routes":{"out":{"m":198.5,"o":3.33},"retFast":{"m":347.4,"o":0.24}}},{"id":"n11394142336","name":"Papa John's","cat":"food","sub":"fast_food","lat":37.34715,"lon":-79.8459,"tags":{"brand":"Papa John's","opening_hours":"Mo-Sa 10:30-22:00; Su 11:00-22:00","phone":"+1 540-512-7915","website":"https://locations.papajohns.com/united-states/va/24175/troutville/1663-blue-ridge-blvd","cuisine":"pizza"},"routes":{"out":{"m":201.3,"o":0.21},"retFast":{"m":346.7,"o":4.09}}},{"id":"n10074757809","name":"Villa Pizzeria","cat":"food","sub":"restaurant","lat":37.36456,"lon":-79.81852,"tags":{"opening_hours":"Tu-Th, Su 11:00-21:00; Fr-Sa 11:00-22:00","phone":"+1-540-728-9414","website":"https://www.ordervillapizzeriamenu.com/","cuisine":"pizza"},"routes":{"out":{"m":200.3,"o":1.05},"retFast":{"m":348.1,"o":4.99}}},{"id":"n5314103826","name":"Exxon","cat":"fuel","sub":"fuel","lat":37.45557,"lon":-79.83736,"tags":{"brand":"Exxon"},"routes":{"out":{"m":196.3,"o":3.58},"retFast":{"m":353.6,"o":0.12}}},{"id":"n11399975494","name":"Subway","cat":"food","sub":"fast_food","lat":37.49988,"lon":-79.75046,"tags":{"brand":"Subway","opening_hours":"Mo 09:00-12:00; Tu-We 09:00-21:00; Th 09:00-18:00; Fr-Su 09:00-21:00","phone":"+1 540-254-3100","website":"https://restaurants.subway.com/united-states/va/buchanan/15166-lee-hwy","cuisine":"sandwich"},"routes":{"out":{"m":187.6,"o":3.62},"retFast":{"m":359.4,"o":0.07}}},{"id":"n12248153617","name":"North Star Restaurant","cat":"food","sub":"restaurant","lat":37.50441,"lon":-79.73879,"tags":{"opening_hours":"Mo-Sa 06:00-19:00; Su 06:00-15:00"},"routes":{"out":{"m":187.1,"o":3.26},"retFast":{"m":360,"o":0.31}}},{"id":"n7727563112","name":"Peaks of Otter Restaurant","cat":"food","sub":"restaurant","lat":37.44811,"lon":-79.60464,"tags":{},"routes":{"out":{"m":180.3,"o":0.06}}},{"id":"n7726359352","name":"Burger King","cat":"food","sub":"fast_food","lat":37.52898,"lon":-79.67815,"tags":{"brand":"Burger King","cuisine":"burger"},"routes":{"out":{"m":185.8,"o":3.1},"retFast":{"m":363.8,"o":0.52}}},{"id":"n1732564683","name":"North Creek Campground","cat":"camping","sub":"camp_site","lat":37.54169,"lon":-79.58372,"tags":{"phone":"+1-540-291-2188","website":"https://www.fs.usda.gov/recarea/gwj/recarea/?recid=73857"},"routes":{"out":{"m":175.4,"o":3.8},"retFast":{"m":366.9,"o":4.1}}},{"id":"n4733018625","name":"Cave Mountain Lake Campground","cat":"camping","sub":"camp_site","lat":37.56824,"lon":-79.54042,"tags":{"phone":"+1-540-291-2188"},"routes":{"out":{"m":170.5,"o":3.11},"retFast":{"m":371.5,"o":4.19}}},{"id":"n4732619389","name":"Hopper Creek Group Campground","cat":"camping","sub":"camp_site","lat":37.56027,"lon":-79.50904,"tags":{"phone":"+1-540-291-2188","website":"https://www.fs.usda.gov/recarea/gwj/recarea/?recid=73763"},"routes":{"out":{"m":169.8,"o":1.71}}},{"id":"n7623333544","name":"Spirit","cat":"fuel","sub":"fuel","lat":37.62283,"lon":-79.49525,"tags":{},"routes":{"out":{"m":165.7,"o":4.84},"retFast":{"m":377.2,"o":3.14}}},{"id":"n9380866620","name":"Hunt Brothers Pizza","cat":"food","sub":"fast_food","lat":37.62294,"lon":-79.49553,"tags":{"brand":"Hunt Brothers Pizza","cuisine":"pizza"},"routes":{"out":{"m":165.7,"o":4.86},"retFast":{"m":377.2,"o":3.12}}},{"id":"n11908124035","name":"Blue Ridge Deli","cat":"food","sub":"restaurant","lat":37.62187,"lon":-79.49906,"tags":{"cuisine":"deli"},"routes":{"out":{"m":165.7,"o":4.88},"retFast":{"m":377,"o":3.12}}},{"id":"n12471735318","name":null,"cat":"camping","sub":"camp_site","lat":37.5647,"lon":-79.43984,"tags":{},"routes":{"out":{"m":164.8,"o":0.45}}},{"id":"n8659913921","name":"Marble Spring Campsite","cat":"camping","sub":"camp_site","lat":37.57081,"lon":-79.43747,"tags":{},"routes":{"out":{"m":163.4,"o":0.58}}},{"id":"n12471735317","name":null,"cat":"camping","sub":"camp_site","lat":37.57646,"lon":-79.43716,"tags":{},"routes":{"out":{"m":163.4,"o":0.9}}},{"id":"n13672997026","name":null,"cat":"camping","sub":"camp_site","lat":37.59839,"lon":-79.38959,"tags":{},"routes":{"out":{"m":161.8,"o":2.42}}},{"id":"n13290664925","name":"Stanimals 328 Hostel","cat":"lodging","sub":"hostel","lat":37.6293,"lon":-79.45609,"tags":{"phone":"+1-540-480-8325","website":"https://www.stanimals328.com"},"routes":{"out":{"m":163.4,"o":4.69},"retFast":{"m":378.1,"o":3.88}}},{"id":"n8744124105","name":"Scotto's Pizza","cat":"food","sub":"restaurant","lat":37.63044,"lon":-79.44974,"tags":{"opening_hours":"Tu-Sa 10:30-21:00; Su 11:00-20:00","phone":"+1 540 258 2500","cuisine":"pizza;burger;sandwich;american"},"routes":{"out":{"m":163.4,"o":4.67},"retFast":{"m":378.1,"o":4.07}}},{"id":"n6292445776","name":"Petro Power","cat":"fuel","sub":"fuel","lat":37.63111,"lon":-79.44789,"tags":{"brand":"Petro"},"routes":{"out":{"m":163.4,"o":4.7},"retFast":{"m":378.2,"o":4.11}}},{"id":"n3607628293","name":"JJ's Meat Shack","cat":"food","sub":"restaurant","lat":37.7291,"lon":-79.3569,"tags":{"cuisine":"barbecue"},"routes":{"out":{"m":142.4,"o":2.44},"retFast":{"m":385.8,"o":3.44}}},{"id":"n11400769355","name":"Domino's","cat":"food","sub":"fast_food","lat":37.73586,"lon":-79.35508,"tags":{"brand":"Domino's","opening_hours":"Mo-Th 10:00-24:00; Fr-Sa 10:00-01:00; Su 10:00-24:00","phone":"+1 540-261-1111","website":"https://pizza.dominos.com/virginia/buena-vista/210-w-22nd-street","cuisine":"pizza"},"routes":{"out":{"m":142,"o":2.53},"retFast":{"m":386,"o":3.31}}},{"id":"n12187248332","name":"Don Tequila Mexican Restaurant","cat":"food","sub":"restaurant","lat":37.73702,"lon":-79.35502,"tags":{"website":"https://www.dontequilamexicanva.com/","cuisine":"mexican"},"routes":{"out":{"m":141.9,"o":2.56},"retFast":{"m":386,"o":3.28}}},{"id":"n4609246818","name":"Exxon","cat":"fuel","sub":"fuel","lat":37.74143,"lon":-79.35846,"tags":{"brand":"Exxon"},"routes":{"out":{"m":140.9,"o":2.83},"retFast":{"m":386.1,"o":2.99}}},{"id":"n12248857162","name":"Burger King","cat":"food","sub":"fast_food","lat":37.74152,"lon":-79.35807,"tags":{"brand":"Burger King","cuisine":"burger"},"routes":{"out":{"m":140.9,"o":2.81},"retFast":{"m":386.1,"o":3}}},{"id":"n4609246821","name":"Hardee's","cat":"food","sub":"fast_food","lat":37.7421,"lon":-79.35547,"tags":{"brand":"Hardee's","opening_hours":"Mo-Su 05:00-22:00","phone":"+1 540-261-3353","website":"https://locations.hardees.com/va/buena-vista/2801-beech-avenue","cuisine":"burger"},"routes":{"out":{"m":140.9,"o":2.68},"retFast":{"m":386.2,"o":3.12}}},{"id":"n11400769360","name":"BP","cat":"fuel","sub":"fuel","lat":37.74368,"lon":-79.34871,"tags":{"brand":"BP"},"routes":{"out":{"m":140.9,"o":2.34},"retFast":{"m":386.3,"o":3.42}}},{"id":"n4609246858","name":null,"cat":"lodging","sub":"motel","lat":37.74525,"lon":-79.34307,"tags":{},"routes":{"out":{"m":140.9,"o":2.08},"retFast":{"m":386.5,"o":3.67}}},{"id":"n6209857681","name":null,"cat":"camping","sub":"camp_site","lat":37.74455,"lon":-79.21154,"tags":{},"routes":{"out":{"m":131.2,"o":3.42}}},{"id":"n6209857181","name":null,"cat":"camping","sub":"camp_site","lat":37.7478,"lon":-79.19706,"tags":{},"routes":{"out":{"m":131.2,"o":3.21}}},{"id":"n6209857671","name":null,"cat":"camping","sub":"camp_site","lat":37.74534,"lon":-79.16901,"tags":{},"routes":{"out":{"m":131,"o":3.85}}},{"id":"n6209857680","name":null,"cat":"camping","sub":"camp_site","lat":37.74078,"lon":-79.17112,"tags":{},"routes":{"out":{"m":131,"o":4.09}}},{"id":"n6209857670","name":null,"cat":"camping","sub":"camp_site","lat":37.7462,"lon":-79.16866,"tags":{},"routes":{"out":{"m":131,"o":3.81}}},{"id":"n8648758211","name":null,"cat":"camping","sub":"camp_site","lat":37.76046,"lon":-79.19116,"tags":{},"routes":{"out":{"m":131.1,"o":2.42}}},{"id":"n10702851794","name":"CrossRoads Camp & Conference Center","cat":"camping","sub":"camp_site","lat":37.76732,"lon":-79.13759,"tags":{"phone":"+1-434-277-8465","website":"https://www.crossroadscamp.com/"},"routes":{"out":{"m":129.9,"o":3.64}}},{"id":"n8648763250","name":null,"cat":"camping","sub":"camp_site","lat":37.82601,"lon":-79.14336,"tags":{},"routes":{"out":{"m":126.8,"o":1.09}}},{"id":"n8648763252","name":null,"cat":"camping","sub":"camp_site","lat":37.82775,"lon":-79.12162,"tags":{},"routes":{"out":{"m":126.7,"o":2.11}}},{"id":"n13168702560","name":"Montebello Resort","cat":"camping","sub":"camp_site","lat":37.85255,"lon":-79.13191,"tags":{"phone":"+1 540 377 2650","website":"https://www.montebellova.com/"},"routes":{"out":{"m":124.8,"o":0.73}}},{"id":"n11517722196","name":"Crabtree Falls Campgound","cat":"camping","sub":"camp_site","lat":37.85502,"lon":-79.06898,"tags":{"phone":"+1-540-377-2066","website":"https://www.crabtreefallscampground.com/"},"routes":{"out":{"m":113.7,"o":2.94}}},{"id":"n402295387","name":null,"cat":"camping","sub":"camp_site","lat":37.9213,"lon":-79.0882,"tags":{},"routes":{"out":{"m":117.4,"o":0.67}}},{"id":"n402295379","name":null,"cat":"camping","sub":"camp_site","lat":37.92523,"lon":-79.12283,"tags":{},"routes":{"out":{"m":119.7,"o":1.68},"retFast":{"m":405.8,"o":4.93}}},{"id":"n402295381","name":null,"cat":"camping","sub":"camp_site","lat":37.92639,"lon":-79.11568,"tags":{},"routes":{"out":{"m":118.6,"o":1.6}}},{"id":"n402295386","name":null,"cat":"camping","sub":"camp_site","lat":37.92509,"lon":-79.11026,"tags":{},"routes":{"out":{"m":118.5,"o":1.36}}},{"id":"n402295385","name":null,"cat":"camping","sub":"camp_site","lat":37.93013,"lon":-79.09725,"tags":{},"routes":{"out":{"m":118,"o":1.39}}},{"id":"n8708061065","name":null,"cat":"camping","sub":"camp_site","lat":37.93234,"lon":-79.09049,"tags":{},"routes":{"out":{"m":117.4,"o":1.38}}},{"id":"n8708061064","name":null,"cat":"camping","sub":"camp_site","lat":37.93295,"lon":-79.08827,"tags":{},"routes":{"out":{"m":117.4,"o":1.37}}},{"id":"n13392113956","name":"Pine Spring Camp","cat":"camping","sub":"camp_site","lat":37.95625,"lon":-79.0703,"tags":{},"routes":{"out":{"m":117.2,"o":2.88}}},{"id":"n2865460694","name":null,"cat":"camping","sub":"camp_site","lat":37.8375,"lon":-79.02129,"tags":{},"routes":{"out":{"m":110.7,"o":3.04}}},