{"builtAt":"2026-06-10","pois":[{"id":"n8648763250","name":null,"cat":"camping","sub":"camp_site","lat":37.82601,"lon":-79.14336,"tags":{},"routes":{"out":{"m":126.8,"o":1.09}}},{"id":"n8648763252","name":null,"cat":"camping","sub":"camp_site","lat":37.82775,"lon":-79.12162,"tags":{},"routes":{"out":{"m":126.7,"o":2.11}}},{"id":"n13168702560","name":"Montebello Resort","cat":"camping","sub":"camp_site","lat":37.85255,"lon":-79.13191,"tags":{"phone":"+1 540 377 2650","website":"https://www.montebellova.com/"},"routes":{"out":{"m":124.8,"o":0.73}}},{"id":"n11517722196","name":"Crabtree Falls Campgound","cat":"camping","sub":"camp_site","lat":37.85502,"lon":-79.06898,"tags":{"phone":"+1-540-377-2066","website":"https://www.crabtreefallscampground.com/"},"routes":{"out":{"m":113.7,"o":2.94}}},{"id":"n402295387","name":null,"cat":"camping","sub":"camp_site","lat":37.9213,"lon":-79.0882,"tags":{},"routes":{"out":{"m":117.4,"o":0.67}}},{"id":"n402295379","name":null,"cat":"camping","sub":"camp_site","lat":37.92523,"lon":-79.12283,"tags":{},"routes":{"out":{"m":119.7,"o":1.68},"retFast":{"m":405.7,"o":4.93}}},{"id":"n402295381","name":null,"cat":"camping","sub":"camp_site","lat":37.92639,"lon":-79.11568,"tags":{},"routes":{"out":{"m":118.6,"o":1.6}}},{"id":"n402295386","name":null,"cat":"camping","sub":"camp_site","lat":37.92509,"lon":-79.11026,"tags":{},"routes":{"out":{"m":118.5,"o":1.36}}},{"id":"n402295385","name":null,"cat":"camping","sub":"camp_site","lat":37.93013,"lon":-79.09725,"tags":{},"routes":{"out":{"m":118,"o":1.39}}},{"id":"n8708061065","name":null,"cat":"camping","sub":"camp_site","lat":37.93234,"lon":-79.09049,"tags":{},"routes":{"out":{"m":117.4,"o":1.38}}},{"id":"n8708061064","name":null,"cat":"camping","sub":"camp_site","lat":37.93295,"lon":-79.08827,"tags":{},"routes":{"out":{"m":117.4,"o":1.37}}},{"id":"n13392113956","name":"Pine Spring Camp","cat":"camping","sub":"camp_site","lat":37.95625,"lon":-79.0703,"tags":{},"routes":{"out":{"m":117.2,"o":2.88}}},{"id":"n2865460694","name":null,"cat":"camping","sub":"camp_site","lat":37.8375,"lon":-79.02129,"tags":{},"routes":{"out":{"m":110.7,"o":3.04}}},{"id":"n2653215955","name":"Rusty's Hard Time Hollow","cat":"lodging","sub":"hostel","lat":37.88945,"lon":-79.02134,"tags":{},"routes":{"out":{"m":111.4,"o":0.09}}},{"id":"n8044360885","name":null,"cat":"camping","sub":"camp_site","lat":37.87012,"lon":-79.00645,"tags":{},"routes":{"out":{"m":110.7,"o":0.9}}},{"id":"n12847723500","name":null,"cat":"camping","sub":"camp_site","lat":37.87455,"lon":-79.00253,"tags":{},"routes":{"out":{"m":110.4,"o":0.75}}},{"id":"n8044361085","name":null,"cat":"camping","sub":"camp_site","lat":37.8779,"lon":-79.00014,"tags":{},"routes":{"out":{"m":110.2,"o":0.64}}},{"id":"n746005878","name":null,"cat":"camping","sub":"camp_site","lat":37.89263,"lon":-78.99176,"tags":{},"routes":{"out":{"m":109.3,"o":0.21}}},{"id":"n8707551903","name":null,"cat":"camping","sub":"camp_site","lat":37.94071,"lon":-79.05281,"tags":{},"routes":{"out":{"m":115.7,"o":1.91}}},{"id":"n5766194295","name":"B&R Grocery","cat":"fuel","sub":"fuel","lat":37.96085,"lon":-78.96224,"tags":{},"routes":{"out":{"m":104.8,"o":1.7}}},{"id":"n3924576696","name":"Hickman's Exxon","cat":"fuel","sub":"fuel","lat":37.87482,"lon":-78.93626,"tags":{"brand":"Exxon","opening_hours":"24/7","phone":"+1-434-361-1205","website":"https://www.exxon.com/en/find-station/roseland-va-hickmansexxon-200312765"},"routes":{"out":{"m":108.8,"o":3.23}}},{"id":"n4991586405","name":"Copper Mine Restaurant","cat":"food","sub":"restaurant","lat":37.91477,"lon":-78.94317,"tags":{"website":"https://www.wintergreenresort.com/Dining-and-Nightlife/","cuisine":"american"},"routes":{"out":{"m":106,"o":1.3}}},{"id":"n6991087311","name":"The Edge","cat":"food","sub":"restaurant","lat":37.915,"lon":-78.94246,"tags":{"cuisine":"burger;regional"},"routes":{"out":{"m":106,"o":1.32}}},{"id":"n8322066701","name":"The Market at Wintergreen","cat":"fuel","sub":"fuel","lat":37.9133,"lon":-78.94271,"tags":{"brand":"Exxon","opening_hours":"Mo-Th 07:30-19:00; Fr-Sa 07:30-21:00; Su 07:30-19:00; 24/7 Pay at pump","phone":"+1-434-325-8224","website":"https://www.exxon.com/en/find-station/wintergreenresort-va-themarketatwintergreen-200319619"},"routes":{"out":{"m":106,"o":1.4}}},{"id":"n12164214032","name":"Checkerberry Cabin","cat":"food","sub":"restaurant","lat":37.92085,"lon":-78.93905,"tags":{"cuisine":"american"},"routes":{"out":{"m":105.7,"o":1.12}}},{"id":"n12187355526","name":"Chirios Pizza","cat":"food","sub":"restaurant","lat":37.88982,"lon":-78.87498,"tags":{"website":"https://chiriospizza.com/home/","cuisine":"pizza"},"routes":{"out":{"m":102.8,"o":4.66}}},{"id":"n12187355558","name":"Giuseppes Italian Restaurant","cat":"food","sub":"restaurant","lat":37.88971,"lon":-78.87352,"tags":{"cuisine":"italian"},"routes":{"out":{"m":102.8,"o":4.71}}},{"id":"n8641480637","name":null,"cat":"camping","sub":"camp_site","lat":37.94423,"lon":-78.9115,"tags":{},"routes":{"out":{"m":102.8,"o":0.41}}},{"id":"n3124335720","name":"Shell","cat":"fuel","sub":"fuel","lat":38.05669,"lon":-78.95023,"tags":{"brand":"Shell"},"routes":{"out":{"m":97,"o":4.72},"retFast":{"m":431.6,"o":0.45}}},{"id":"n12187030446","name":"McAlister's Deli","cat":"food","sub":"restaurant","lat":38.05757,"lon":-78.94408,"tags":{"brand":"McAlister's Deli","website":"https://www.mcalistersdeli.com/","cuisine":"sandwich"},"routes":{"out":{"m":97,"o":4.51},"retFast":{"m":431.9,"o":0.27}}},{"id":"n911167223","name":"Golden Corral","cat":"food","sub":"restaurant","lat":38.06452,"lon":-78.93981,"tags":{"brand":"Golden Corral","cuisine":"american;buffet"},"routes":{"out":{"m":97,"o":4.69},"retFast":{"m":432,"o":0.26}}},{"id":"n6299965409","name":"The Fishin Pig","cat":"food","sub":"restaurant","lat":38.06272,"lon":-78.94269,"tags":{"opening_hours":"Mo off; Tu-Th 11:30-21:00; Fr-Sa 11:30-22:00; Su 11:30-20:00","phone":"+1 540-943-3474","website":"https://www.fishinpig.com","cuisine":"barbecue"},"routes":{"out":{"m":97,"o":4.7},"retFast":{"m":431.9,"o":0.09}}},{"id":"n461460297","name":"Exxon","cat":"fuel","sub":"fuel","lat":38.06327,"lon":-78.93592,"tags":{"brand":"Exxon","opening_hours":"24/7"},"routes":{"out":{"m":97,"o":4.49},"retFast":{"m":432.2,"o":0.26}}},{"id":"n461460305","name":"Starbucks","cat":"food","sub":"cafe","lat":38.06422,"lon":-78.93606,"tags":{"brand":"Starbucks","phone":"+1 540-889-3559","website":"https://www.starbucks.com/store-locator/store/8219/waynesboro-2007-rosser-ave-waynesboro-va-229807403-us","cuisine":"coffee_shop"},"routes":{"out":{"m":97,"o":4.54},"retFast":{"m":432.2,"o":0.32}}},{"id":"n461460308","name":"7-Eleven","cat":"fuel","sub":"fuel","lat":38.06426,"lon":-78.93557,"tags":{"brand":"7-Eleven","opening_hours":"24/7"},"routes":{"out":{"m":97,"o":4.53},"retFast":{"m":432.2,"o":0.33}}},{"id":"n12073249385","name":"Sheetz","cat":"fuel","sub":"fuel","lat":38.06439,"lon":-78.93349,"tags":{"brand":"Sheetz","website":"https://orders.sheetz.com/findasheetz/store/761"},"routes":{"out":{"m":94.4,"o":4.44},"retFast":{"m":432.3,"o":0.38}}},{"id":"n13414575658","name":"Budget Inn","cat":"lodging","sub":"motel","lat":38.07756,"lon":-78.91804,"tags":{"phone":"+1-540-942-9551"},"routes":{"out":{"m":94.4,"o":4.3},"retFast":{"m":432.7,"o":1.53}}},{"id":"n3128030644","name":"King's Gourmet Popcorn","cat":"food","sub":"fast_food","lat":38.03162,"lon":-78.85937,"tags":{},"routes":{"out":{"m":94.6,"o":0.01},"retFast":{"m":437.2,"o":0.06}}},{"id":"n10210531858","name":"Grey Pine Lodge","cat":"lodging","sub":"motel","lat":38.04002,"lon":-78.85669,"tags":{"phone":"+1 434 218 2553","website":"https://www.greypinelodgeva.com"},"routes":{"out":{"m":94.4,"o":0.45},"retFast":{"m":437.5,"o":0.5}}},{"id":"n7630118276","name":null,"cat":"fuel","sub":"fuel","lat":38.06113,"lon":-78.8954,"tags":{},"routes":{"out":{"m":94.4,"o":2.63},"retFast":{"m":434.1,"o":1.14}}},{"id":"n6564657086","name":"Hiker Camping","cat":"camping","sub":"camp_site","lat":38.06046,"lon":-78.89085,"tags":{},"routes":{"out":{"m":94.4,"o":2.43},"retFast":{"m":434.2,"o":1.24}}},{"id":"n7630118281","name":"Kroger","cat":"fuel","sub":"fuel","lat":38.06637,"lon":-78.88872,"tags":{"brand":"Kroger","website":"https://www.kroger.com/stores/grocery/va/waynesboro/downtown-waynesboro/029/00228"},"routes":{"out":{"m":94.4,"o":2.68},"retFast":{"m":434.1,"o":1.64}}},{"id":"n7143781331","name":"BP","cat":"fuel","sub":"fuel","lat":38.07285,"lon":-78.90084,"tags":{"brand":"BP"},"routes":{"out":{"m":94.4,"o":3.43},"retFast":{"m":433.4,"o":1.65}}},{"id":"n496358286","name":"7-Eleven","cat":"fuel","sub":"fuel","lat":38.0759,"lon":-78.89433,"tags":{"brand":"7-Eleven","opening_hours":"24/7"},"routes":{"out":{"m":94.4,"o":3.4},"retFast":{"m":433.6,"o":2.02}}},{"id":"n2483500231","name":"Stella, Bella & Lucy's","cat":"food","sub":"restaurant","lat":38.06854,"lon":-78.88826,"tags":{"opening_hours":"Mo-Sa 09:00-10:30,11:00-14:30","phone":"+1-540-949-5111","website":"http://stellabellalucy.com","cuisine":"american"},"routes":{"out":{"m":94.4,"o":2.79},"retFast":{"m":434.1,"o":1.78}}},{"id":"n3137211147","name":"Speedway","cat":"fuel","sub":"fuel","lat":38.06624,"lon":-78.87738,"tags":{"brand":"Speedway","opening_hours":"24/7","website":"https://www.speedway.com/locations/va/waynesboro/780-e-main-st-45989"},"routes":{"out":{"m":94.4,"o":2.39},"retFast":{"m":435.9,"o":1.72}}},{"id":"n3137211153","name":"Sunoco","cat":"fuel","sub":"fuel","lat":38.06447,"lon":-78.87331,"tags":{"brand":"Sunoco","phone":"+1 540-943-0935","website":"https://www.sunoco.com/locations/store/1175-e-main-st-waynesboro-va-0679807800"},"routes":{"out":{"m":94.4,"o":2.2},"retFast":{"m":435.9,"o":1.61}}},{"id":"n13424296797","name":"Arco","cat":"fuel","sub":"fuel","lat":38.0651,"lon":-78.87498,"tags":{"brand":"Arco"},"routes":{"out":{"m":94.4,"o":2.27},"retFast":{"m":435.9,"o":1.64}}},{"id":"n13424296798","name":"Happ Coffee","cat":"food","sub":"cafe","lat":38.0647,"lon":-78.87504,"tags":{"opening_hours":"Mo-Sa 06:30-17:00","phone":"+1-540-941-1550","website":"https://www.happcoffeeroasters.com/","cuisine":"coffee_shop"},"routes":{"out":{"m":94.4,"o":2.24},"retFast":{"m":435.9,"o":1.61}}},{"id":"n13424336301","name":"The Showroom","cat":"food","sub":"restaurant","lat":38.064,"lon":-78.87321,"tags":{"opening_hours":"Th-Fr 17:00-22:00; Sa 15:00-22:00","website":"https://www.basiccitybeer.com/theshowroom"},"routes":{"out":{"m":94.4,"o":2.17},"retFast":{"m":435.9,"o":1.57}}},{"id":"n12187017784","name":"Jo's Place","cat":"food","sub":"restaurant","lat":38.07583,"lon":-78.87143,"tags":{"cuisine":"diner"},"routes":{"out":{"m":94.4,"o":2.93},"retFast":{"m":435.9,"o":2.4}}},{"id":"n12136217167","name":"Pippin Hill Tasting Room","cat":"food","sub":"restaurant","lat":37.96196,"lon":-78.65839,"tags":{"phone":"+14342028063","website":"https://www.pippinhillfarm.com/visit-us/tasting-room-at-pippin-hill/","cuisine":"american"},"routes":{"out":{"m":82.8,"o":4.74},"retFast":{"m":448.5,"o":4.71}}},{"id":"n4053612490","name":"The Trading Post","cat":"fuel","sub":"fuel","lat":37.96749,"lon":-78.63545,"tags":{},"routes":{"out":{"m":82.2,"o":4.49},"retFast":{"m":449.2,"o":4.46}}},{"id":"n12572071392","name":null,"cat":"fuel","sub":"fuel","lat":37.98141,"lon":-78.83942,"tags":{},"routes":{"out":{"m":97.8,"o":3.05},"retFast":{"m":437.4,"o":3.65}}},{"id":"n1606986153","name":"Restoration","cat":"food","sub":"restaurant","lat":38.05822,"lon":-78.71923,"tags":{"opening_hours":"11:00-21:00","phone":"+1 434 823 1841","website":"https://restorationcrozet.com/","cuisine":"american"},"routes":{"out":{"m":86.7,"o":0.98},"retFast":{"m":444.7,"o":1.01}}},{"id":"n1607756318","name":"Grit Coffee","cat":"food","sub":"cafe","lat":38.05837,"lon":-78.71046,"tags":{"website":"https://gritcoffee.com/","cuisine":"coffee_shop"},"routes":{"out":{"m":86.3,"o":1.23},"retFast":{"m":445.1,"o":1.26}}},{"id":"n11038259909","name":"Mi Rancho Mexican","cat":"food","sub":"restaurant","lat":38.05726,"lon":-78.70977,"tags":{"website":"https://misranchosmexican.com/","cuisine":"mexican"},"routes":{"out":{"m":86.1,"o":1.18},"retFast":{"m":445.2,"o":1.21}}},{"id":"n11038259910","name":"Coconut Thai Kitchen","cat":"food","sub":"restaurant","lat":38.05847,"lon":-78.7103,"tags":{"website":"https://www.coconutcrozet.com/","cuisine":"thai"},"routes":{"out":{"m":86.3,"o":1.24},"retFast":{"m":445.1,"o":1.27}}},{"id":"n1161621165","name":"Mudhouse","cat":"food","sub":"cafe","lat":38.06937,"lon":-78.70073,"tags":{"website":"https://mudhouse.com/","cuisine":"coffee_shop"},"routes":{"out":{"m":85.8,"o":2.14},"retFast":{"m":445.5,"o":2.16}}},{"id":"n1606941609","name":"Fardowners","cat":"food","sub":"restaurant","lat":38.06921,"lon":-78.70032,"tags":{"opening_hours":"Mo 11:30-21:00; Tu-Th 15:00-21:00; Fr-Sa 11:30-22:00; Su 10:00-14:00","website":"https://www.fardowners.com/","cuisine":"american"},"routes":{"out":{"m":85.7,"o":2.13},"retFast":{"m":445.6,"o":2.16}}},{"id":"n1606941624","name":"Crozet Pizza","cat":"food","sub":"restaurant","lat":38.07002,"lon":-78.69998,"tags":{"website":"https://www.crozetpizza.com/","cuisine":"pizza"},"routes":{"out":{"m":85.7,"o":2.19},"retFast":{"m":445.6,"o":2.22}}},{"id":"n3195069641","name":"BP","cat":"fuel","sub":"fuel","lat":38.07024,"lon":-78.70057,"tags":{"brand":"BP"},"routes":{"out":{"m":85.8,"o":2.2},"retFast":{"m":445.5,"o":2.22}}},{"id":"n7415466121","name":"Smoked","cat":"food","sub":"restaurant","lat":38.06842,"lon":-78.70085,"tags":{"website":"https://www.smokedkt.com/crozet","cuisine":"barbecue"},"routes":{"out":{"m":85.8,"o":2.07},"retFast":{"m":445.6,"o":2.1}}},{"id":"n1607805896","name":"Love2Eat Thai Cuisine","cat":"food","sub":"restaurant","lat":38.0505,"lon":-78.6831,"tags":{"opening_hours":"Mo-Tu,Th-Fr 11:00-21:00; Sa-Su 12:00-14:30","phone":"+1-434-823-5881","cuisine":"thai"},"routes":{"out":{"m":84.5,"o":1.19},"retFast":{"m":446.9,"o":1.22}}},{"id":"n1607805978","name":"Domino's","cat":"food","sub":"fast_food","lat":38.0519,"lon":-78.68085,"tags":{"brand":"Domino's","opening_hours":"Su-Th 10:30-23:00; Fr-Sa 10:30-00:00","phone":"+1 434-823-7752","website":"https://pizza.dominos.com/virginia/charlottesville/325-four-leaf-ln","cuisine":"pizza"},"routes":{"out":{"m":84.4,"o":1.32},"retFast":{"m":447,"o":1.36}}},{"id":"n1607806002","name":"Crozet Crepe Company","cat":"food","sub":"restaurant","lat":38.0519,"lon":-78.6806,"tags":{"opening_hours":"Tu-Fr 07:00-15:00; Fr-Sa 08:00-15:00","phone":"+1-434-268-7050","website":"https://www.crozetcrepecompany.com/"},"routes":{"out":{"m":84.4,"o":1.33},"retFast":{"m":447,"o":1.36}}},{"id":"n11038054235","name":"Tea House","cat":"food","sub":"restaurant","lat":38.0519,"lon":-78.68077,"tags":{"opening_hours":"Su,Tu-Th 11:30-21:30; Fr-Sa 11:30-22:00","phone":"+1-434-823-2868","website":"https://teahouseva.com/","cuisine":"chinese"},"routes":{"out":{"m":84.4,"o":1.32},"retFast":{"m":447,"o":1.36}}},{"id":"n11038054243","name":"Subway","cat":"food","sub":"fast_food","lat":38.05193,"lon":-78.68176,"tags":{"brand":"Subway","opening_hours":"Mo-Fr 10:00-21:00; Sa-Su 10:00-20:00","phone":"+1 434-823-7171","website":"https://restaurants.subway.com/united-states/va/crozet/375-four-leaf-lane","cuisine":"sandwich"},"routes":{"out":{"m":84.5,"o":1.31},"retFast":{"m":446.9,"o":1.34}}},{"id":"n12125691385","name":"Crozet Seafood Supply","cat":"food","sub":"restaurant","lat":38.05193,"lon":-78.68137,"tags":{"opening_hours":"Mo 11:00-18:00; Tu-Sa 10:00-18:00; Su 11:00-16:00","phone":"+1-434-268-7003","website":"https://crozetseafood.com/","cuisine":"seafood"},"routes":{"out":{"m":84.5,"o":1.32},"retFast":{"m":446.9,"o":1.35}}},{"id":"n12119298879","name":"Fiesta Azteca","cat":"food","sub":"restaurant","lat":38.06231,"lon":-78.64848,"tags":{"website":"https://www.fiestaaztecaivy.com/","cuisine":"mexican"},"routes":{"out":{"m":81.8,"o":2.09},"retFast":{"m":449.5,"o":2.12}}},{"id":"n8355657368","name":"Hickory Hill Store","cat":"fuel","sub":"fuel","lat":38.01404,"lon":-78.5482,"tags":{},"routes":{"out":{"m":76.5,"o":0.58},"retFast":{"m":454.9,"o":0.56}}},{"id":"n1523624997","name":"Duner's Restaurant","cat":"food","sub":"restaurant","lat":38.05772,"lon":-78.59802,"tags":{"website":"https://www.dunersrestaurant.com/","cuisine":"american"},"routes":{"out":{"m":79.8,"o":1.62},"retFast":{"m":451.5,"o":1.65}}},{"id":"n8260319723","name":"WOCO","cat":"fuel","sub":"fuel","lat":38.05614,"lon":-78.59593,"tags":{"brand":"WOCO","website":"https://www.wocooil.com/"},"routes":{"out":{"m":79.7,"o":1.55},"retFast":{"m":451.7,"o":1.57}}},{"id":"n12092539481","name":"Aromas Cafe and Catering","cat":"food","sub":"restaurant","lat":38.02208,"lon":-78.53169,"tags":{"opening_hours":"Mo-Fr 09:30-14:30","website":"https://www.aromascafeandcatering.com","cuisine":"mediterranean"},"routes":{"out":{"m":75.7,"o":0.23},"retFast":{"m":455.7,"o":0.24}}},{"id":"n9384581919","name":"Charlottesville Fire Department","cat":"fuel","sub":"fuel","lat":38.02568,"lon":-78.5203,"tags":{},"routes":{"out":{"m":75.4,"o":0.83},"retFast":{"m":455.9,"o":0.85}}},{"id":"n2342356558","name":"Atlas Coffee","cat":"food","sub":"cafe","lat":38.02571,"lon":-78.51574,"tags":{"opening_hours":"Mo-Sa 07:00-15:00","phone":"+1-434-970-1700","website":"https://atlascoffeecville.com/","cuisine":"coffee_shop"},"routes":{"out":{"m":75.3,"o":1.02},"retFast":{"m":456.1,"o":1.04}}},{"id":"n2342361938","name":"Guadalajara","cat":"food","sub":"restaurant","lat":38.02571,"lon":-78.51583,"tags":{"opening_hours":"Mo-Fr 11:00-22:00; Sa 11:30-22:00; Su 11:30-21:00","website":"https://www.guadalajaramexicanva.com/","cuisine":"mexican"},"routes":{"out":{"m":75.3,"o":1.02},"retFast":{"m":456.1,"o":1.03}}},{"id":"n2705023892","name":"Yuan Ho Gao","cat":"food","sub":"restaurant","lat":38.02683,"lon":-78.516,"tags":{"opening_hours":"Mo-Fr 11:00-22:00","phone":"+1-434-977-7878","website":"https://yuanhogaotogo.com","cuisine":"chinese"},"routes":{"out":{"m":75.4,"o":1.06},"retFast":{"m":456,"o":1.08}}},{"id":"n11997823902","name":"Silk Thai","cat":"food","sub":"restaurant","lat":38.02563,"lon":-78.51628,"tags":{"opening_hours":"Su-Th 11:00-21:30; Fr,Sa 11:00-22:30","phone":"+1-434-977-8424","website":"https://charlottesville.silkthairestaurant.com/","cuisine":"thai"},"routes":{"out":{"m":75.3,"o":0.99},"retFast":{"m":456.1,"o":1.01}}},{"id":"n12092559596","name":"Mashumen","cat":"food","sub":"restaurant","lat":38.02567,"lon":-78.51603,"tags":{"opening_hours":"Mo-Th,Su 11:00-21:30; Fr-Sa 11:00-22:30","phone":"+1-434-400-9007","website":"https://mashumen.com/","cuisine":"japanese"},"routes":{"out":{"m":75.3,"o":1.01},"retFast":{"m":456.1,"o":1.02}}},{"id":"n12187373228","name":"Pi-Napo Pizzeria","cat":"food","sub":"restaurant","lat":38.02618,"lon":-78.51493,"tags":{"opening_hours":"Mo-Su 11:00-21:00","phone":"+1-434-235-5125","website":"https://pinapopizza.com/","cuisine":"pizza"},"routes":{"out":{"m":75.3,"o":1.07},"retFast":{"m":456.1,"o":1.09}}},{"id":"n10916644260","name":"Christian's Pizza","cat":"food","sub":"fast_food","lat":38.00968,"lon":-78.5058,"tags":{"cuisine":"pizza"},"routes":{"out":{"m":73.8,"o":0.11},"retFast":{"m":457.6,"o":0.03}}},{"id":"n2599166409","name":"Shell","cat":"fuel","sub":"fuel","lat":38.01136,"lon":-78.50436,"tags":{"brand":"Shell"},"routes":{"out":{"m":73.8,"o":0.24},"retFast":{"m":457.7,"o":0.03}}},{"id":"n6302700662","name":"Extreme Pizza","cat":"food","sub":"fast_food","lat":38.01144,"lon":-78.50027,"tags":{"brand":"Extreme Pizza","opening_hours":"Su-Th 11:00-21:00; Fr-Sa 11:00-22:00","phone":"+1-434-234-3239","website":"https://www.extremepizza.com/location/charlottesville-virginia/","cuisine":"pizza"},"routes":{"out":{"m":73.5,"o":0.26},"retFast":{"m":457.9,"o":0.13}}},{"id":"n6302700666","name":"Timberwood Tap House","cat":"food","sub":"restaurant","lat":38.0104,"lon":-78.49975,"tags":{"opening_hours":"Mo-Su 11:00-21:00","website":"https://timberwoodtaphouse.com/","cuisine":"american"},"routes":{"out":{"m":73.5,"o":0.19},"retFast":{"m":457.9,"o":0.19}}},{"id":"n8105242674","name":"Starbucks","cat":"food","sub":"cafe","lat":38.0098,"lon":-78.50548,"tags":{"brand":"Starbucks","opening_hours":"Mo-Fr 05:00-20:30; Sa-Su 05:30-20:00","phone":"+1 434-906-3129","website":"https://www.starbucks.com/store-locator/store/1027948/i-64-5th-street-601-fifth-street-suite-100-charlottesville-va-2290","cuisine":"coffee_shop"},"routes":{"out":{"m":73.8,"o":0.12},"retFast":{"m":457.6,"o":0.03}}},{"id":"n13650618975","name":"Bambu","cat":"food","sub":"restaurant","lat":38.01036,"lon":-78.49956,"tags":{"website":"https://bambudumplinghouse.com/","cuisine":"asian"},"routes":{"out":{"m":73.5,"o":0.19},"retFast":{"m":457.9,"o":0.2}}},{"id":"n6302700649","name":"Dave's Hot Chicken","cat":"food","sub":"fast_food","lat":38.01053,"lon":-78.49813,"tags":{"brand":"Dave's Hot Chicken","cuisine":"chicken"},"routes":{"out":{"m":73.4,"o":0.21},"retFast":{"m":457.9,"o":0.25}}},{"id":"n6302700670","name":"Jersey Mike's Subs","cat":"food","sub":"fast_food","lat":38.01039,"lon":-78.49883,"tags":{"brand":"Jersey Mike's Subs","website":"https://www.jerseymikes.com/6046/charlottesville-va","cuisine":"sandwich"},"routes":{"out":{"m":73.5,"o":0.2},"retFast":{"m":457.9,"o":0.23}}},{"id":"n13376380579","name":"BP","cat":"fuel","sub":"fuel","lat":38.01986,"lon":-78.48222,"tags":{"brand":"BP"},"routes":{"out":{"m":72.3,"o":0.67},"retFast":{"m":459.1,"o":0.55}}},{"id":"n5535384604","name":"Exxon","cat":"fuel","sub":"fuel","lat":38.05052,"lon":-78.52757,"tags":{"brand":"Exxon"},"routes":{"out":{"m":76,"o":2.1},"retFast":{"m":455.4,"o":2.11}}},{"id":"n6977920272","name":"Einstein Bros. Bagels","cat":"food","sub":"fast_food","lat":38.03175,"lon":-78.51089,"tags":{"brand":"Einstein Bros. Bagels","opening_hours":"Mo-Fr 08:00-14:00","website":"https://locations.einsteinbros.com/us/va/charlottesville/85-engineers-way","cuisine":"bagel"},"routes":{"out":{"m":75.4,"o":1.5},"retFast":{"m":458.8,"o":1.16}}},{"id":"n4555901617","name":"Costco Gasoline","cat":"fuel","sub":"fuel","lat":38.06838,"lon":-78.48857,"tags":{"brand":"Costco Gasoline","website":"https://www.costco.com/warehouse-locations/charlottesville-va-1184.html"},"routes":{"out":{"m":71.5,"o":3.93},"retFast":{"m":459.7,"o":2.56}}},{"id":"n3893005455","name":"Christian's Pizza","cat":"food","sub":"restaurant","lat":38.03089,"lon":-78.4822,"tags":{"opening_hours":"Mo-Th 11:00-21:00; Fr-Sa 11:00-22:00; Su 11:00-21:00","phone":"+1-434-977-9688","website":"https://www.orderchristianspizza.com/","cuisine":"pizza"},"routes":{"out":{"m":72,"o":1.38},"retFast":{"m":459.7,"o":0.01}}},{"id":"n3893014172","name":"The Alley Light","cat":"food","sub":"restaurant","lat":38.03053,"lon":-78.48239,"tags":{"opening_hours":"Mo-Tu off; We-Su 17:00-22:00","phone":"+1 434-296-5003","website":"https://alleylight.com","cuisine":"french"},"routes":{"out":{"m":72,"o":1.36},"retFast":{"m":459.6,"o":0.01}}},{"id":"n3894530755","name":"Bizou","cat":"food","sub":"restaurant","lat":38.03107,"lon":-78.48206,"tags":{"opening_hours":"Mo-Th 11:30-14:00,17:00-21:00; Fr 11:30-14:00,17:00-22:00; Sa 11:00-14:00,17:00-22:00; Su 11:00-14:00,17:00-21:00","phone":"+1-434-977-1818","website":"https://www.bizoudowntown.com/","cuisine":"american"},"routes":{"out":{"m":72,"o":1.39},"retFast":{"m":459.7,"o":0.01}}},{"id":"n3894530756","name":"The Bebedero","cat":"food","sub":"restaurant","lat":38.03114,"lon":-78.48228,"tags":{"opening_hours":"Mo-Sa 12:00-02:00","website":"https://thebebedero.com/","cuisine":"mexican"},"routes":{"out":{"m":72,"o":1.4},"retFast":{"m":459.7,"o":0}}},{"id":"n5139964514","name":"Iron Paffles & Coffee","cat":"food","sub":"cafe","lat":38.03037,"lon":-78.48325,"tags":{"opening_hours":"Mo-Th 07:00-21:00; Fr 07:00-22:00; Sa 08:00-22:00; Su 10:00-16:00","phone":"+1 434 806 3800","website":"https://www.iron-made.com"},"routes":{"out":{"m":72.1,"o":1.37},"retFast":{"m":459.6,"o":0.01}}},{"id":"n11018956305","name":"Otto","cat":"food","sub":"restaurant","lat":38.03034,"lon":-78.48248,"tags":{"opening_hours":"Su-Th 11:00-20:00; Fr-Sa 11:00-21:00","website":"https://otto-cville.com","cuisine":"turkish"},"routes":{"out":{"m":72,"o":1.35},"retFast":{"m":459.6,"o":0.01}}},{"id":"n12031014569","name":"Monsoon Siam","cat":"food","sub":"restaurant","lat":38.03184,"lon":-78.48171,"tags":{"opening_hours":"Mo-Fr 11:30-14:30,17:00-21:00; Sa-Su 12:00-14:30,16:30-21:00","phone":"+1-434-971-1515","website":"https://www.monsoonsiamcville.com/","cuisine":"thai"},"routes":{"out":{"m":71.9,"o":1.43},"retFast":{"m":459.7,"o":0.01}}},{"id":"n12102710890","name":"Luce","cat":"food","sub":"restaurant","lat":38.03138,"lon":-78.48197,"tags":{"opening_hours":"Mo-Su 16:00-21:00","phone":"+1-434-293-9537","website":"https://www.lucepasta.com/","cuisine":"italian"},"routes":{"out":{"m":72,"o":1.41},"retFast":{"m":459.7,"o":0.01}}},{"id":"n12117959541","name":"Revolutionary Soup","cat":"food","sub":"restaurant","lat":38.03068,"lon":-78.48232,"tags":{"opening_hours":"Mo-Fr 10:00-20:00","phone":"+1-434-296-7687","website":"https://revolutionarysoup.com/","cuisine":"soup"},"routes":{"out":{"m":72,"o":1.37},"retFast":{"m":459.6,"o":0}}},{"id":"n8148847917","name":"Lone Light Coffee","cat":"food","sub":"cafe","lat":38.03068,"lon":-78.47906,"tags":{"opening_hours":"Mo-Sa 08:00-16:00; Su off","phone":"+1-434-977-0443","website":"https://www.lonelightcoffee.com/","cuisine":"coffee_shop"},"routes":{"out":{"m":71.8,"o":1.31},"retFast":{"m":459.9,"o":0.01}}},{"id":"n13613154691","name":"Taqueria El Comalito","cat":"food","sub":"restaurant","lat":38.02988,"lon":-78.47466,"tags":{"opening_hours":"Tu-Fr 11:00-20:00; Sa 09:00-20:00; Su 09:00-18:00","phone":"+1-434-227-1936","cuisine":"mexican"},"routes":{"out":{"m":71.6,"o":1.17},"retFast":{"m":460.2,"o":0.02}}},{"id":"n12102787115","name":"Future Coffee","cat":"food","sub":"cafe","lat":38.03134,"lon":-78.47138,"tags":{"phone":"+1-571-344-1717","website":"https://future-coffee.com/","cuisine":"coffee_shop"},"routes":{"out":{"m":71.5,"o":1.21},"retFast":{"m":460.5,"o":0.02}}},{"id":"n12187271557","name":"Fabio's NY Pizza","cat":"food","sub":"restaurant","lat":38.03422,"lon":-78.46071,"tags":{"opening_hours":"Mo-Th 11:00-21:00; Fr-Sa 11:00-22:00; Su off","phone":"+1-434-872-0070","website":"https://www.fabiosnypizza.com/","cuisine":"pizza"},"routes":{"out":{"m":71.1,"o":1.26},"retFast":{"m":461.1,"o":0.01}}},{"id":"n10226876453","name":"Tropical Smoothie Cafe","cat":"food","sub":"fast_food","lat":38.03375,"lon":-78.44894,"tags":{"brand":"Tropical Smoothie Cafe","opening_hours":"Mo-Fr 07:00-22:00; Sa 08:00-22:00; Su 08:00-21:00","phone":"+1-434-422-8771","website":"https://locations.tropicalsmoothiecafe.com/va/charlottesville/930-olympia-drive","cuisine":"juice"},"routes":{"out":{"m":70.4,"o":1.12},"retFast":{"m":461.8,"o":0.03}}},{"id":"n3101273591","name":"Mobil","cat":"fuel","sub":"fuel","lat":38.03021,"lon":-78.44423,"tags":{"brand":"Mobil"},"routes":{"out":{"m":70.1,"o":0.82},"retFast":{"m":462.1,"o":0.02}}},{"id":"n3101284689","name":"BP","cat":"fuel","sub":"fuel","lat":38.0297,"lon":-78.44339,"tags":{"brand":"BP"},"routes":{"out":{"m":70.1,"o":0.78},"retFast":{"m":462.2,"o":0.03}}},{"id":"n3626116405","name":"Bojangles'","cat":"food","sub":"fast_food","lat":38.03086,"lon":-78.4454,"tags":{"brand":"Bojangles'","opening_hours":"Mo-Su 06:00-22:00","phone":"+1 434-293-1190","website":"https://locations.bojangles.com/va/charlottesville/2009-abbey-road.html","cuisine":"chicken"},"routes":{"out":{"m":70.2,"o":0.88},"retFast":{"m":462,"o":0.02}}},{"id":"n5521238974","name":"Exxon","cat":"fuel","sub":"fuel","lat":38.06552,"lon":-78.46489,"tags":{"brand":"Exxon"},"routes":{"out":{"m":70.9,"o":3.43},"retFast":{"m":461.2,"o":2.13}}},{"id":"n5521238976","name":"Citgo","cat":"fuel","sub":"fuel","lat":38.06658,"lon":-78.46565,"tags":{"brand":"Citgo"},"routes":{"out":{"m":70.9,"o":3.51},"retFast":{"m":461.2,"o":2.21}}},{"id":"n3985326961","name":"Shell","cat":"fuel","sub":"fuel","lat":38.07003,"lon":-78.48502,"tags":{"brand":"Shell","opening_hours":"24/7","phone":"+1 434-973-1005","website":"https://find.shell.com/us/fuel/10012878-1220-seminole-trl"},"routes":{"out":{"m":71.4,"o":3.98},"retFast":{"m":459.7,"o":2.65}}},{"id":"n5521238977","name":"Market Street Cafe Rio Road","cat":"fuel","sub":"fuel","lat":38.06704,"lon":-78.46586,"tags":{"brand":"Marathon"},"routes":{"out":{"m":71,"o":3.54},"retFast":{"m":461.2,"o":2.25}}},{"id":"n2748209654","name":"Speedway","cat":"fuel","sub":"fuel","lat":38.0806,"lon":-78.47554,"tags":{"brand":"Speedway","website":"https://www.speedway.com/locations/VA/Charlottesville/1600-Seminole-Trail"},"routes":{"out":{"m":71.2,"o":4.56},"retFast":{"m":461.2,"o":3.27}}},{"id":"n5521117510","name":"BP","cat":"fuel","sub":"fuel","lat":37.92428,"lon":-78.31674,"tags":{"brand":"BP"},"routes":{"out":{"m":62.9,"o":5}}},{"id":"n13646596570","name":"Quarles Fleet Fueling","cat":"fuel","sub":"fuel","lat":37.96674,"lon":-78.2146,"tags":{},"routes":{"out":{"m":56.8,"o":0.66}}},{"id":"n3101292233","name":"BP","cat":"fuel","sub":"fuel","lat":37.9738,"lon":-78.21586,"tags":{"brand":"BP"},"routes":{"out":{"m":57.1,"o":0.27}}},{"id":"n3207827959","name":"Exxon","cat":"fuel","sub":"fuel","lat":37.93312,"lon":-78.11024,"tags":{"brand":"Exxon"},"routes":{"out":{"m":50.9,"o":0.59}}},{"id":"n13650231130","name":"Citgo","cat":"fuel","sub":"fuel","lat":37.93355,"lon":-78.10955,"tags":{"brand":"Citgo"},"routes":{"out":{"m":50.8,"o":0.55}}},{"id":"n10553300329","name":"The Clifton","cat":"lodging","sub":"guest_house","lat":38.00699,"lon":-78.39673,"tags":{"website":"https://www.the-clifton.com/"},"routes":{"out":{"m":67.5,"o":0.61},"retFast":{"m":465.2,"o":0.48}}},{"id":"n13646596534","name":"Shadwell Station","cat":"fuel","sub":"fuel","lat":38.01283,"lon":-78.39447,"tags":{},"routes":{"out":{"m":67.5,"o":0.19},"retFast":{"m":465.3,"o":0.07}}},{"id":"n5764899754","name":"Exxon","cat":"fuel","sub":"fuel","lat":38.05413,"lon":-78.31844,"tags":{"brand":"Exxon"},"routes":{"out":{"m":63.3,"o":3.96},"retFast":{"m":470.5,"o":0}}},{"id":"n3101292241","name":"Il Castello Italian Restaurant","cat":"food","sub":"restaurant","lat":37.97829,"lon":-78.2107,"tags":{"website":"https://ilcastelloitalianrestaurant.com/","cuisine":"italian"},"routes":{"out":{"m":57,"o":0.14}}},{"id":"n3101292242","name":"Made In Asia","cat":"food","sub":"restaurant","lat":37.97824,"lon":-78.21075,"tags":{"website":"https://www.madeinasiava.com/","cuisine":"chinese;thai"},"routes":{"out":{"m":57,"o":0.14}}},{"id":"n3101292246","name":"Arby's","cat":"food","sub":"fast_food","lat":37.97926,"lon":-78.21081,"tags":{"brand":"Arby's","website":"https://www.arbys.com/locations/us/va/zion-crossroads/75-market-street/store-8395/","cuisine":"sandwich"},"routes":{"out":{"m":57.1,"o":0.2}}},{"id":"n11806003526","name":"Checkers","cat":"food","sub":"fast_food","lat":37.97896,"lon":-78.21106,"tags":{"brand":"Checkers","website":"https://checkersandrallys.com/location/checkers-3960-market-st-36407473","cuisine":"burger"},"routes":{"out":{"m":57.1,"o":0.17}}},{"id":"n3101292244","name":"Sheetz","cat":"fuel","sub":"fuel","lat":37.97967,"lon":-78.21031,"tags":{"brand":"Sheetz","opening_hours":"24/7"},"routes":{"out":{"m":57.1,"o":0.23}}},{"id":"n3101292247","name":"Subway","cat":"food","sub":"fast_food","lat":37.97846,"lon":-78.21059,"tags":{"brand":"Subway","opening_hours":"Mo-Th 08:00-21:00; Fr-Sa 08:00-22:00; Su 09:00-21:00","phone":"+1 540-832-7070","website":"https://restaurants.subway.com/united-states/va/zion-crossroads/53-market-street-rd","cuisine":"sandwich"},"routes":{"out":{"m":57,"o":0.15}}},{"id":"n11488272114","name":"Domino's","cat":"food","sub":"fast_food","lat":37.97754,"lon":-78.2086,"tags":{"brand":"Domino's","opening_hours":"10:30-23:00","phone":"+1 540-920-2999","website":"https://pizza.dominos.com/virginia/zion-crossroads/164-camp-creek-parkway","cuisine":"pizza"},"routes":{"out":{"m":56.9,"o":0.15}}},{"id":"n3104851663","name":"Shell","cat":"fuel","sub":"fuel","lat":38.02645,"lon":-78.00443,"tags":{"brand":"Shell"},"routes":{"out":{"m":42,"o":0.23}}},{"id":"n10974552198","name":"10:13 Coffee & Baked Goods","cat":"food","sub":"cafe","lat":38.02414,"lon":-78.00219,"tags":{},"routes":{"out":{"m":42,"o":0.02}}},{"id":"n12154411265","name":"Smokin' Eddie's BBQ","cat":"food","sub":"restaurant","lat":38.02578,"lon":-78.00369,"tags":{"cuisine":"barbecue"},"routes":{"out":{"m":42,"o":0.16}}},{"id":"n12187365934","name":"Obrigado","cat":"food","sub":"restaurant","lat":38.02464,"lon":-78.00284,"tags":{"website":"https://www.obrigadorestaurant.com/","cuisine":"mediterranean"},"routes":{"out":{"m":42,"o":0.07}}},{"id":"n12187365938","name":"Country Boys BBQ","cat":"food","sub":"restaurant","lat":38.02502,"lon":-78.0032,"tags":{"website":"https://countryboysbbqlouisa.com/","cuisine":"barbecue"},"routes":{"out":{"m":42,"o":0.11}}},{"id":"n3104845211","name":"Roma Italian Restaurant & Pizza","cat":"food","sub":"restaurant","lat":38.0194,"lon":-77.99481,"tags":{"website":"http://www.romasitalianrestaurant.net","cuisine":"italian"},"routes":{"out":{"m":42.2,"o":0.34}}},{"id":"n3104845212","name":"Los Tres Potrillos Mexican Restaurant","cat":"food","sub":"restaurant","lat":38.01936,"lon":-77.99465,"tags":{"website":"https://www.lostrespotrillosva.com/","cuisine":"mexican"},"routes":{"out":{"m":42.2,"o":0.35}}},{"id":"n3104844587","name":"BP","cat":"fuel","sub":"fuel","lat":38.0197,"lon":-77.99233,"tags":{"brand":"BP"},"routes":{"out":{"m":41.7,"o":0.43}}},{"id":"n7102345356","name":"Exxon","cat":"fuel","sub":"fuel","lat":38.0106,"lon":-77.90861,"tags":{"brand":"Exxon"},"routes":{"out":{"m":39.2,"o":4.21}}},{"id":"n12154409116","name":"Callie Opie's Orchard Restaurant","cat":"food","sub":"restaurant","lat":38.0734,"lon":-77.88302,"tags":{"website":"https://callieopiesorchard.com/","cuisine":"american"},"routes":{"out":{"m":31.4,"o":0.43}}},{"id":"n4578371692","name":"Tim's at Lake Anna Crabhouse","cat":"food","sub":"restaurant","lat":38.11464,"lon":-77.91463,"tags":{"phone":"+1 540 8945010","website":"https://www.timslakeanna.com/","cuisine":"seafood"},"routes":{"out":{"m":33.3,"o":1.71}}},{"id":"n4578431392","name":"Chef Lee Chinese Restaurant","cat":"food","sub":"restaurant","lat":38.08151,"lon":-77.85058,"tags":{"cuisine":"chinese"},"routes":{"out":{"m":29.6,"o":0.1}}},{"id":"n4578448289","name":"Big Cheese Pizza","cat":"food","sub":"restaurant","lat":38.08152,"lon":-77.8505,"tags":{"cuisine":"pizza"},"routes":{"out":{"m":29.6,"o":0.1}}},{"id":"n4578447790","name":"Subway","cat":"food","sub":"fast_food","lat":38.08171,"lon":-77.84933,"tags":{"brand":"Subway","opening_hours":"08:30-21:30","phone":"+1 540-894-5588","website":"https://restaurants.subway.com/united-states/va/mineral/11020-kentucky-springs-rd","cuisine":"sandwich"},"routes":{"out":{"m":29.5,"o":0.1}}},{"id":"n5519621156","name":"Marathon","cat":"fuel","sub":"fuel","lat":38.08474,"lon":-77.82718,"tags":{"brand":"Marathon"},"routes":{"out":{"m":28.2,"o":0.03}}},{"id":"n2450008412","name":"Asian Cafe","cat":"food","sub":"restaurant","lat":38.08522,"lon":-77.82375,"tags":{"phone":"+1-540-894-9899","website":"https://asiancafelak.com/","cuisine":"japanese"},"routes":{"out":{"m":28,"o":0.03}}},{"id":"n6538011652","name":null,"cat":"food","sub":"fast_food","lat":38.11307,"lon":-77.83321,"tags":{},"routes":{"out":{"m":28.2,"o":2.01}}},{"id":"n11215529640","name":"The Cove at Lake Anna","cat":"food","sub":"restaurant","lat":38.13379,"lon":-77.86851,"tags":{"website":"https://www.thecovelka.com/","cuisine":"seafood"},"routes":{"out":{"m":30,"o":3.57}}},{"id":"n4578372691","name":"Exxon","cat":"fuel","sub":"fuel","lat":38.02795,"lon":-77.77541,"tags":{"brand":"Exxon"},"routes":{"out":{"m":26,"o":4.24}}},{"id":"n5260542520","name":"Dukes' Creek Deli","cat":"food","sub":"restaurant","lat":38.06013,"lon":-77.75077,"tags":{},"routes":{"out":{"m":25.9,"o":2.82}}},{"id":"n11453701334","name":"Exxon","cat":"fuel","sub":"fuel","lat":38.11771,"lon":-77.75884,"tags":{"brand":"Exxon"},"routes":{"out":{"m":23.2,"o":0.02}}},{"id":"n11453701339","name":"BP","cat":"fuel","sub":"fuel","lat":38.1384,"lon":-77.72545,"tags":{"brand":"BP"},"routes":{"out":{"m":20.6,"o":0.02}}},{"id":"n1311005151","name":null,"cat":"camping","sub":"camp_site","lat":38.19279,"lon":-77.66613,"tags":{},"routes":{"out":{"m":16.3,"o":2.16}}},{"id":"n11453776641","name":"BP","cat":"fuel","sub":"fuel","lat":38.25361,"lon":-77.64798,"tags":{"brand":"BP"},"routes":{"out":{"m":11.7,"o":4.19},"retFast":{"m":517.3,"o":3.73}}},{"id":"n5482421821","name":"Sam's Pizza","cat":"food","sub":"restaurant","lat":38.19963,"lon":-77.58719,"tags":{"cuisine":"pizza"},"routes":{"out":{"m":11,"o":0.5}}},{"id":"n5474440764","name":"Subway","cat":"food","sub":"fast_food","lat":38.2059,"lon":-77.59176,"tags":{"brand":"Subway","cuisine":"sandwich"},"routes":{"out":{"m":11.1,"o":0.03}}},{"id":"n8339869357","name":"Itavie New York Grill & Bakery","cat":"food","sub":"restaurant","lat":38.20443,"lon":-77.59349,"tags":{"website":"https://www.itavie.com/","cuisine":"italian"},"routes":{"out":{"m":11.2,"o":0.13}}},{"id":"n13730813692","name":"Papa John's","cat":"food","sub":"fast_food","lat":38.20596,"lon":-77.59066,"tags":{"brand":"Papa John's","cuisine":"pizza"},"routes":{"out":{"m":11.1,"o":0.04}}},{"id":"n11234873489","name":"Wawa","cat":"fuel","sub":"fuel","lat":38.20769,"lon":-77.58085,"tags":{"brand":"Wawa"},"routes":{"out":{"m":10.5,"o":0.05}}},{"id":"n5474957956","name":"Sheetz","cat":"fuel","sub":"fuel","lat":38.19417,"lon":-77.50823,"tags":{"brand":"Sheetz"},"routes":{"out":{"m":7.2,"o":3.59}}},{"id":"n13307087298","name":"Mobil","cat":"fuel","sub":"fuel","lat":38.22082,"lon":-77.50835,"tags":{"brand":"Mobil"},"routes":{"out":{"m":5.8,"o":1.84},"retFast":{"m":522,"o":4.9}}},{"id":"n933124377","name":"7-Eleven","cat":"fuel","sub":"fuel","lat":38.2238,"lon":-77.49104,"tags":{"brand":"7-Eleven"},"routes":{"out":{"m":5.5,"o":2.03},"retFast":{"m":524.8,"o":4.92}}},{"id":"n944011622","name":"Wawa","cat":"fuel","sub":"fuel","lat":38.2258,"lon":-77.50636,"tags":{"brand":"Wawa","opening_hours":"Mo-Su 00:00-00:00"},"routes":{"out":{"m":5.7,"o":1.53},"retFast":{"m":522,"o":4.6}}},{"id":"n5302645226","name":"Exxon","cat":"fuel","sub":"fuel","lat":38.23576,"lon":-77.50201,"tags":{"brand":"Exxon"},"routes":{"out":{"m":5.5,"o":1.02},"retFast":{"m":522,"o":4.03}}},{"id":"n6981887338","name":"China Garden","cat":"food","sub":"restaurant","lat":38.26192,"lon":-77.58076,"tags":{"cuisine":"chinese"},"routes":{"out":{"m":8.2,"o":2.24},"retFast":{"m":519.6,"o":2.11}}},{"id":"n6981887337","name":"Rubicon Cafe","cat":"food","sub":"cafe","lat":38.2635,"lon":-77.58377,"tags":{},"routes":{"out":{"m":8.2,"o":2.42},"retFast":{"m":519.3,"o":2.02}}},{"id":"n6981886425","name":"Subway","cat":"food","sub":"fast_food","lat":38.26342,"lon":-77.58018,"tags":{"brand":"Subway","opening_hours":"Mo-Sa 09:00-21:00; Su 09:00-20:00","phone":"+1 540-785-5770","website":"https://restaurants.subway.com/united-states/va/fredericksburg/7136-salem-fields-blvd","cuisine":"sandwich"},"routes":{"out":{"m":8.2,"o":2.31},"retFast":{"m":519.6,"o":2}}},{"id":"n6981886426","name":"Southern Style Chicken and Waffles","cat":"food","sub":"restaurant","lat":38.26335,"lon":-77.58019,"tags":{"website":"https://wafflessc.com/","cuisine":"chicken;southern"},"routes":{"out":{"m":8.2,"o":2.3},"retFast":{"m":519.6,"o":2.01}}},{"id":"n6000844887","name":"Scafa's","cat":"food","sub":"restaurant","lat":38.24309,"lon":-77.52858,"tags":{"cuisine":"italian"},"routes":{"out":{"m":6.5,"o":0.05},"retFast":{"m":521.8,"o":3.18}}},{"id":"n536863582","name":"7-Eleven","cat":"fuel","sub":"fuel","lat":38.24454,"lon":-77.52476,"tags":{"brand":"7-Eleven"},"routes":{"out":{"m":6.3,"o":0.03},"retFast":{"m":521.8,"o":3.1}}},{"id":"n12324492839","name":"Dragon Express","cat":"food","sub":"restaurant","lat":38.24444,"lon":-77.52776,"tags":{"website":"https://dragonexpress1888.com/","cuisine":"chinese"},"routes":{"out":{"m":6.5,"o":0.03},"retFast":{"m":521.8,"o":3.09}}},{"id":"n12324492845","name":"Pi's Cucina","cat":"food","sub":"restaurant","lat":38.24461,"lon":-77.52732,"tags":{"website":"https://piscucinamenu.com/","cuisine":"italian"},"routes":{"out":{"m":6.4,"o":0.04},"retFast":{"m":521.8,"o":3.08}}},{"id":"n12324492849","name":"Pollito Chicken","cat":"food","sub":"restaurant","lat":38.24475,"lon":-77.52697,"tags":{"website":"https://www.pollito-chicken.com/","cuisine":"peruvian"},"routes":{"out":{"m":6.4,"o":0.04},"retFast":{"m":521.8,"o":3.07}}},{"id":"n12853558418","name":"Chipotle","cat":"food","sub":"fast_food","lat":38.24483,"lon":-77.52628,"tags":{"brand":"Chipotle","phone":"+1-540-734-2386","cuisine":"mexican"},"routes":{"out":{"m":6.4,"o":0.03},"retFast":{"m":521.8,"o":3.07}}},{"id":"n5474957220","name":"Wawa","cat":"fuel","sub":"fuel","lat":38.24728,"lon":-77.51525,"tags":{"brand":"Wawa"},"routes":{"out":{"m":5.7,"o":0.02},"retFast":{"m":522,"o":3.04}}},{"id":"n12324555026","name":"Castiglia's Italian Restaurant","cat":"food","sub":"restaurant","lat":38.24689,"lon":-77.51308,"tags":{"website":"http://www.mycastiglias.com/","cuisine":"italian"},"routes":{"out":{"m":5.6,"o":0.05},"retFast":{"m":522,"o":3.1}}},{"id":"n8040158958","name":"7-Eleven","cat":"fuel","sub":"fuel","lat":38.24418,"lon":-77.49835,"tags":{"brand":"7-Eleven"},"routes":{"out":{"m":5.1,"o":0.63},"retFast":{"m":524.1,"o":3.56}}},{"id":"n8419257003","name":"Tobacco and Gas Corner","cat":"fuel","sub":"fuel","lat":38.24568,"lon":-77.4988,"tags":{"brand":"Marathon"},"routes":{"out":{"m":5,"o":0.53},"retFast":{"m":524.1,"o":3.45}}},{"id":"n954643714","name":"Wawa","cat":"fuel","sub":"fuel","lat":38.24974,"lon":-77.49341,"tags":{"brand":"Wawa"},"routes":{"out":{"m":4.7,"o":0.46},"retFast":{"m":524.1,"o":3.16}}},{"id":"n10976574144","name":"7-Eleven","cat":"fuel","sub":"fuel","lat":38.25094,"lon":-77.50493,"tags":{"brand":"7-Eleven"},"routes":{"out":{"m":5.1,"o":0.04},"retFast":{"m":522.2,"o":3.01}}},{"id":"n11181832459","name":"Domino's","cat":"food","sub":"fast_food","lat":38.25124,"lon":-77.50686,"tags":{"brand":"Domino's","opening_hours":"Mo-Fr 10:30-00:00; Sa-Su 00:00-01:00,10:30-00:00","phone":"+1 540-891-0303","website":"https://pizza.dominos.com/virginia/fredericksburg/10740-courthouse-rd/","cuisine":"pizza"},"routes":{"out":{"m":5.2,"o":0.03},"retFast":{"m":522.1,"o":2.95}}},{"id":"n12323813849","name":"Fish N' Grill","cat":"food","sub":"restaurant","lat":38.25419,"lon":-77.50063,"tags":{"website":"https://fishngrill.com/","cuisine":"seafood"},"routes":{"out":{"m":4.8,"o":0.02},"retFast":{"m":524.1,"o":2.88}}},{"id":"n10976574143","name":"7-Eleven","cat":"fuel","sub":"fuel","lat":38.26921,"lon":-77.53941,"tags":{"brand":"7-Eleven"},"routes":{"out":{"m":6.8,"o":1.82},"retFast":{"m":521.6,"o":1.36}}},{"id":"n5470199064","name":"7-Eleven","cat":"fuel","sub":"fuel","lat":38.28838,"lon":-77.53569,"tags":{"brand":"7-Eleven"},"routes":{"out":{"m":3,"o":2.56},"retFast":{"m":521.7,"o":0.03}}},{"id":"n2684516863","name":"BP","cat":"fuel","sub":"fuel","lat":38.27948,"lon":-77.49048,"tags":{"brand":"BP"},"routes":{"out":{"m":2.9,"o":0.03},"retFast":{"m":524.1,"o":1.12}}},{"id":"n5470450717","name":"Sheetz","cat":"fuel","sub":"fuel","lat":38.27017,"lon":-77.4837,"tags":{"brand":"Sheetz"},"routes":{"out":{"m":3.4,"o":0.5},"retFast":{"m":524.8,"o":1.69}}},{"id":"n5567915602","name":null,"cat":"fuel","sub":"fuel","lat":38.26802,"lon":-77.44444,"tags":{},"routes":{"out":{"m":0.6,"o":2.4},"retFast":{"m":525.7,"o":2.39}}},{"id":"n5501194567","name":"Subway","cat":"food","sub":"fast_food","lat":38.29343,"lon":-77.56937,"tags":{"brand":"Subway","opening_hours":"Mo-Su 08:00-21:00","phone":"+1 540-785-6767","website":"https://restaurants.subway.com/united-states/va/fredericksburg/5769-plank-rd","cuisine":"sandwich"},"routes":{"out":{"m":6.8,"o":3.98},"retFast":{"m":519.9,"o":0.13}}},{"id":"n8497339179","name":"Harry's Ale House","cat":"food","sub":"restaurant","lat":38.29335,"lon":-77.56866,"tags":{"opening_hours":"Mo-Th 11:30-21:00; Fr 11:30-22:00; Sa 11:00-22:00; Su 11:00-20:00","phone":"+1-540-548-1500","website":"https://www.harrysalehouse.com/","cuisine":"american"},"routes":{"out":{"m":6.8,"o":3.96},"retFast":{"m":519.9,"o":0.13}}},{"id":"n12119016724","name":"Asian Dynasty","cat":"food","sub":"restaurant","lat":38.29334,"lon":-77.56848,"tags":{"website":"https://www.asiandynastyonline.com/","cuisine":"asian;thai;chinese"},"routes":{"out":{"m":6.8,"o":3.95},"retFast":{"m":519.9,"o":0.13}}},{"id":"n3938933824","name":"7-Eleven","cat":"fuel","sub":"fuel","lat":38.29014,"lon":-77.56007,"tags":{"brand":"7-Eleven","opening_hours":"24/7"},"routes":{"out":{"m":6.8,"o":3.55},"retFast":{"m":520.4,"o":0.03}}},{"id":"n536831098","name":"Valero","cat":"fuel","sub":"fuel","lat":38.28957,"lon":-77.54945,"tags":{"brand":"Valero","website":"https://locations.valero.com/en-us/LocationDetails/Index/5022-PLANK-RD/0000003353"},"routes":{"out":{"m":3.1,"o":3.3},"retFast":{"m":521,"o":0.02}}},{"id":"n5470199062","name":"Wawa","cat":"fuel","sub":"fuel","lat":38.28944,"lon":-77.53813,"tags":{"brand":"Wawa"},"routes":{"out":{"m":3,"o":2.7},"retFast":{"m":521.6,"o":0.04}}},{"id":"n1540111627","name":"Costco Gasoline","cat":"fuel","sub":"fuel","lat":38.29194,"lon":-77.517,"tags":{"brand":"Costco Gasoline","website":"https://www.costco.com/warehouse-locations/fredericksburg-va-340.html"},"routes":{"out":{"m":2.5,"o":1.65},"retFast":{"m":522.8,"o":0.17}}},{"id":"n5421483802","name":"Starbucks","cat":"food","sub":"cafe","lat":38.29381,"lon":-77.51828,"tags":{"brand":"Starbucks","phone":"+1 540-786-2446","website":"https://www.starbucks.com/store-locator/store/1018048/3406-plank-road-3406-plank-road-a-fredericksburg-va-224074960-us","cuisine":"coffee_shop"},"routes":{"out":{"m":2.4,"o":1.75},"retFast":{"m":522.7,"o":0.02}}},{"id":"n6328325838","name":"Valero","cat":"fuel","sub":"fuel","lat":38.2956,"lon":-77.51305,"tags":{"brand":"Valero"},"routes":{"out":{"m":2.2,"o":1.51},"retFast":{"m":523.1,"o":0.01}}},{"id":"n4589712494","name":"Wawa","cat":"fuel","sub":"fuel","lat":38.29726,"lon":-77.5132,"tags":{"brand":"Wawa","phone":"+1-540-785-3438","website":"https://www.wawa.com/"},"routes":{"out":{"m":2.1,"o":1.55},"retFast":{"m":523.1,"o":0.1}}},{"id":"n4588441789","name":"Metro Diner","cat":"food","sub":"restaurant","lat":38.29555,"lon":-77.49587,"tags":{"brand":"Metro Diner","website":"https://metrodiner.com","cuisine":"diner"},"routes":{"out":{"m":1.7,"o":0.62},"retFast":{"m":524,"o":0.02}}},{"id":"n4589464809","name":"America's Best Wings","cat":"food","sub":"restaurant","lat":38.29591,"lon":-77.49241,"tags":{"opening_hours":"Mo-Th 11:00-22:00; Fr-Sa 11:00-23:00; Su 11:00-21:00","phone":"+1-540-940-6771","cuisine":"wings"},"routes":{"out":{"m":1.7,"o":0.43},"retFast":{"m":524.2,"o":0.02}}},{"id":"n4589495900","name":"Cook Out","cat":"food","sub":"fast_food","lat":38.29535,"lon":-77.49445,"tags":{"brand":"Cook Out","cuisine":"american"},"routes":{"out":{"m":1.7,"o":0.54},"retFast":{"m":524.1,"o":0.02}}},{"id":"n5762735383","name":"Vocelli Pizza","cat":"food","sub":"fast_food","lat":38.29594,"lon":-77.49229,"tags":{"brand":"Vocelli Pizza","cuisine":"pizza"},"routes":{"out":{"m":1.7,"o":0.42},"retFast":{"m":524.2,"o":0.02}}},{"id":"n4588413292","name":"Shell","cat":"fuel","sub":"fuel","lat":38.29652,"lon":-77.49809,"tags":{"brand":"Shell"},"routes":{"out":{"m":1.7,"o":0.74},"retFast":{"m":523.9,"o":0.03}}},{"id":"n5474805352","name":"Walmart","cat":"fuel","sub":"fuel","lat":38.3081,"lon":-77.51327,"tags":{"brand":"Walmart","website":"https://www.walmart.com/store/1833-fredericksburg-va"},"routes":{"out":{"m":1.7,"o":1.77},"retFast":{"m":523.1,"o":0.85}}},{"id":"n2678252326","name":"MAPCO","cat":"fuel","sub":"fuel","lat":38.34756,"lon":-77.50033,"tags":{"brand":"Mapco"},"routes":{"out":{"m":1.7,"o":3.65},"retFast":{"m":523.7,"o":3.54}}},{"id":"n4783211624","name":"Wawa","cat":"fuel","sub":"fuel","lat":38.344,"lon":-77.49657,"tags":{"brand":"Wawa"},"routes":{"out":{"m":1.7,"o":3.37},"retFast":{"m":523.8,"o":3.3}}},{"id":"n12324554102","name":"Deutschland Downtown","cat":"food","sub":"restaurant","lat":38.30284,"lon":-77.46225,"tags":{"website":"https://www.deutschlanddowntown.com/","cuisine":"german"},"routes":{"out":{"m":0.2,"o":0.09},"retFast":{"m":526.1,"o":0.01}}},{"id":"n10313637514","name":"Newton Motel","cat":"lodging","sub":"motel","lat":38.34197,"lon":-77.45934,"tags":{},"routes":{"out":{"m":0,"o":2.68},"retFast":{"m":526.2,"o":2.67}}},{"id":"w1432680304","name":null,"cat":"fuel","sub":"fuel","lat":37.85254,"lon":-79.13157,"tags":{},"routes":{"out":{"m":124.8,"o":0.75}}},{"id":"w1106311937","name":"Devils Backbone Camp","cat":"camping","sub":"caravan_site","lat":37.87141,"lon":-78.92494,"tags":{},"routes":{"out":{"m":107.6,"o":3.83}}},{"id":"w596534644","name":"Sherando Lake Campground","cat":"camping","sub":"camp_site","lat":37.91912,"lon":-79.01265,"tags":{"phone":"+1-540-291-2188","website":"https://www.fs.usda.gov/recarea/gwj/recarea/?recid=73959"},"routes":{"out":{"m":108.3,"o":1.87}}},{"id":"w939057757","name":null,"cat":"camping","sub":"caravan_site","lat":37.91956,"lon":-79.01712,"tags":{},"routes":{"out":{"m":111.8,"o":1.86}}},{"id":"w939057763","name":null,"cat":"camping","sub":"caravan_site","lat":37.91846,"lon":-79.01632,"tags":{},"routes":{"out":{"m":111.8,"o":1.79}}},{"id":"w939057764","name":null,"cat":"camping","sub":"caravan_site","lat":37.91762,"lon":-79.01478,"tags":{},"routes":{"out":{"m":111.8,"o":1.75}}},{"id":"w939062584","name":null,"cat":"camping","sub":"caravan_site","lat":37.91784,"lon":-79.01258,"tags":{},"routes":{"out":{"m":111.8,"o":1.79}}},{"id":"w114502227","name":"Maupin Field","cat":"camping","sub":"camp_site","lat":37.88503,"lon":-78.99291,"tags":{},"routes":{"out":{"m":109.5,"o":0.53}}},{"id":"w920737323","name":"Cabin Creekwood","cat":"lodging","sub":"guest_house","lat":37.91904,"lon":-78.9853,"tags":{"phone":"+1-540-943-8552"},"routes":{"out":{"m":107.8,"o":0.81}}},{"id":"w921167840","name":"Fenton Inn","cat":"lodging","sub":"guest_house","lat":37.90426,"lon":-78.97261,"tags":{},"routes":{"out":{"m":107.9,"o":0.41}}},{"id":"w939408615","name":"Kennedy Fields","cat":"camping","sub":"camp_site","lat":37.97057,"lon":-79.01194,"tags":{},"routes":{"out":{"m":106.2,"o":4.02}}},{"id":"w389302642","name":"Devil's Backbone Basecamp Brewpub","cat":"food","sub":"restaurant","lat":37.87127,"lon":-78.9186,"tags":{"cuisine":"american"},"routes":{"out":{"m":107.6,"o":4.09}}},{"id":"w318964980","name":"The Lookout","cat":"food","sub":"restaurant","lat":37.91577,"lon":-78.93923,"tags":{"cuisine":"burger;sandwich"},"routes":{"out":{"m":105.7,"o":1.38}}},{"id":"w608678721","name":"The Country Store","cat":"fuel","sub":"fuel","lat":38.02637,"lon":-78.94517,"tags":{"brand":"Klene American Gas"},"routes":{"out":{"m":98.7,"o":3.38},"retFast":{"m":432.6,"o":2.3}}},{"id":"w445502408","name":"Mobil","cat":"fuel","sub":"fuel","lat":38.05648,"lon":-78.95015,"tags":{"brand":"Mobil"},"routes":{"out":{"m":97,"o":4.71},"retFast":{"m":431.6,"o":0.46}}},{"id":"w445520313","name":"McDonald's","cat":"food","sub":"fast_food","lat":38.05771,"lon":-78.9449,"tags":{"brand":"McDonald's","opening_hours":"05:00-19:00","phone":"+1 540-943-8525","website":"https://www.mcdonalds.com/us/en-us/location/33602.html","cuisine":"burger"},"routes":{"out":{"m":97,"o":4.55},"retFast":{"m":431.9,"o":0.28}}},{"id":"w1475444563","name":"Dunkin'","cat":"food","sub":"fast_food","lat":38.05842,"lon":-78.94567,"tags":{"brand":"Dunkin'","opening_hours":"Mo-Fr 05:30-20:00; Sa-Su 06:00-20:00","phone":"+1 540-808-0840","website":"https://locations.dunkindonuts.com/en/va/waynesboro/501a-shenandoah-village-dr/358122","cuisine":"donut;coffee_shop"},"routes":{"out":{"m":97,"o":4.61},"retFast":{"m":431.8,"o":0.25}}},{"id":"w1229472182","name":"Taco Bell","cat":"food","sub":"fast_food","lat":38.05873,"lon":-78.94361,"tags":{"brand":"Taco Bell","opening_hours":"08:00-23:45","phone":"+1 540-324-3551","website":"https://locations.tacobell.com/va/waynesboro/840-shenandoah-village-dr-.html","cuisine":"tex-mex"},"routes":{"out":{"m":97,"o":4.54},"retFast":{"m":431.9,"o":0.19}}},{"id":"w1475444565","name":"Chick-fil-A","cat":"food","sub":"fast_food","lat":38.05845,"lon":-78.94445,"tags":{"brand":"Chick-fil-A","opening_hours":"off","phone":"+1 540-932-9209","website":"https://www.chick-fil-a.com/locations/va/waynesboro","cuisine":"chicken"},"routes":{"out":{"m":97,"o":4.56},"retFast":{"m":431.9,"o":0.22}}},{"id":"w169857856","name":"Days Inn","cat":"lodging","sub":"hotel","lat":38.06164,"lon":-78.938,"tags":{"brand":"Days Inn","phone":"+1 540-943-1101","website":"https://www.wyndhamhotels.com/days-inn/waynesboro-virginia/days-inn-waynesboro-va/overview"},"routes":{"out":{"m":97,"o":4.47},"retFast":{"m":432.1,"o":0.11}}},{"id":"w920638706","name":"Best Western Plus Waynesboro Inn & Suites Conference Center","cat":"lodging","sub":"hotel","lat":38.06308,"lon":-78.94132,"tags":{"brand":"Best Western Plus","phone":"+1 540-942-1100","website":"https://www.bestwestern.com/en_US/book/hotels-in-waynesboro/best-western-plus-waynesboro-inn-suites-conference-center/pr"},"routes":{"out":{"m":97,"o":4.67},"retFast":{"m":431.9,"o":0.14}}},{"id":"w1186510240","name":"Cracker Barrel","cat":"food","sub":"restaurant","lat":38.0632,"lon":-78.94027,"tags":{"brand":"Cracker Barrel","opening_hours":"Mo-Th,Su 07:00-21:00; Fr-Sa 07:00-22:00","phone":"+1-540-942-0156","website":"https://www.crackerbarrel.com/Locations/States/va/waynesboro/568","cuisine":"american"},"routes":{"out":{"m":97,"o":4.64},"retFast":{"m":432,"o":0.17}}},{"id":"w169857854","name":"Wendy's","cat":"food","sub":"fast_food","lat":38.06214,"lon":-78.93718,"tags":{"brand":"Wendy's","opening_hours":"07:00-22:00","phone":"+1 540-943-4433","website":"https://locations.wendys.com/united-states/va/waynesboro/2050-rosser-avenue","cuisine":"burger"},"routes":{"out":{"m":97,"o":4.47},"retFast":{"m":432.1,"o":0.16}}},{"id":"w485437511","name":"Plaza Azteca","cat":"food","sub":"restaurant","lat":38.06147,"lon":-78.93504,"tags":{"opening_hours":"Mo-Th 11:00-22:00, Fr 11:00-23:00; Sa 11:00-22:30; Su 11:30-21:30","phone":"+1-540-949-4205","website":"https://www.plazawaynesboro.com/","cuisine":"mexican"},"routes":{"out":{"m":97,"o":4.36},"retFast":{"m":432.3,"o":0.16}}},{"id":"w920637954","name":"Residence Inn Waynesboro","cat":"lodging","sub":"hotel","lat":38.06205,"lon":-78.93319,"tags":{"brand":"Residence Inn","phone":"+1 540-943-7426","website":"https://www.marriott.com/shdri"},"routes":{"out":{"m":97,"o":4.33},"retFast":{"m":432.4,"o":0.23}}},{"id":"w920639178","name":"Super 8 by Wyndham Waynesboro","cat":"lodging","sub":"motel","lat":38.0633,"lon":-78.9378,"tags":{"brand":"Super 8","phone":"+1 540-369-3747","website":"https://www.wyndhamhotels.com/super-8/waynesboro-virginia/super-8-waynesboro/overview"},"routes":{"out":{"m":97,"o":4.55},"retFast":{"m":432.1,"o":0.22}}},{"id":"w920639682","name":"Holiday Inn Express & Suites Waynesboro East","cat":"lodging","sub":"hotel","lat":38.06245,"lon":-78.93475,"tags":{"brand":"Holiday Inn Express & Suites","phone":"+1-540-221-4258"},"routes":{"out":{"m":97,"o":4.4},"retFast":{"m":432.3,"o":0.23}}},{"id":"w921152484","name":"Comfort Inn","cat":"lodging","sub":"hotel","lat":38.06189,"lon":-78.93606,"tags":{"brand":"Comfort Inn","phone":"+1 540-932-3060","website":"https://www.choicehotels.com/virginia/waynesboro/comfort-inn-hotels"},"routes":{"out":{"m":97,"o":4.42},"retFast":{"m":432.2,"o":0.17}}},{"id":"w1186510225","name":"KFC","cat":"food","sub":"fast_food","lat":38.06399,"lon":-78.93651,"tags":{"brand":"KFC","opening_hours":"10:30-00:00","phone":"+1 540-942-1329","website":"https://locations.kfc.com/va/waynesboro/2015-rosser-avenue","cuisine":"chicken"},"routes":{"out":{"m":97,"o":4.54},"retFast":{"m":432.1,"o":0.29}}},{"id":"w1290905746","name":"Outback Steakhouse","cat":"food","sub":"restaurant","lat":38.06186,"lon":-78.93419,"tags":{"brand":"Outback Steakhouse","cuisine":"american;steak"},"routes":{"out":{"m":97,"o":4.35},"retFast":{"m":432.3,"o":0.2}}},{"id":"w1290905747","name":"Silk Road","cat":"food","sub":"restaurant","lat":38.06241,"lon":-78.93637,"tags":{"opening_hours":"Mo-Th,Su 11:00-21:00; Fr-Sa 11:00-22:00","phone":"+1-540-949-9097","website":"https://www.silkroadcuisineva.com/","cuisine":"asian"},"routes":{"out":{"m":97,"o":4.46},"retFast":{"m":432.2,"o":0.2}}},{"id":"w1432533311","name":"Holiday Inn Express & Suites","cat":"lodging","sub":"hotel","lat":38.06094,"lon":-78.93724,"tags":{"brand":"Holiday Inn Express & Suites"},"routes":{"out":{"m":97,"o":4.41},"retFast":{"m":432.2,"o":0.08}}},{"id":"w639012726","name":"Martin's","cat":"fuel","sub":"fuel","lat":38.06705,"lon":-78.92973,"tags":{"brand":"Martin's","opening_hours":"06:00-23:00","phone":"+1 540 942 7200","website":"https://stores.martinsfoods.com/va/waynesboro/437-tiffany-dr"},"routes":{"out":{"m":94.4,"o":4.36},"retFast":{"m":432.4,"o":0.63}}},{"id":"w921152008","name":"Royal Inn Motel","cat":"lodging","sub":"motel","lat":38.07639,"lon":-78.91431,"tags":{"phone":"+1-540-949-8253"},"routes":{"out":{"m":94.4,"o":4.1},"retFast":{"m":432.9,"o":1.53}}},{"id":"w921152009","name":null,"cat":"lodging","sub":"motel","lat":38.07632,"lon":-78.91477,"tags":{},"routes":{"out":{"m":94.4,"o":4.12},"retFast":{"m":432.9,"o":1.52}}},{"id":"w921152010","name":null,"cat":"lodging","sub":"motel","lat":38.07625,"lon":-78.91441,"tags":{},"routes":{"out":{"m":94.4,"o":4.1},"retFast":{"m":432.9,"o":1.52}}},{"id":"w921152011","name":null,"cat":"lodging","sub":"motel","lat":38.07621,"lon":-78.91405,"tags":{},"routes":{"out":{"m":94.4,"o":4.08},"retFast":{"m":432.9,"o":1.53}}},{"id":"w921152012","name":null,"cat":"lodging","sub":"motel","lat":38.07606,"lon":-78.91415,"tags":{},"routes":{"out":{"m":94.4,"o":4.08},"retFast":{"m":432.9,"o":1.51}}},{"id":"w1316818529","name":"Sheetz","cat":"fuel","sub":"fuel","lat":38.07673,"lon":-78.91604,"tags":{"brand":"Sheetz"},"routes":{"out":{"m":94.4,"o":4.19},"retFast":{"m":432.9,"o":1.52}}},{"id":"w1316552989","name":"Iris Inn & Cabins","cat":"lodging","sub":"hotel","lat":38.04402,"lon":-78.90432,"tags":{"website":"https://www.irisinn.com/"},"routes":{"out":{"m":95.8,"o":2.36},"retFast":{"m":434.3,"o":0.1}}},{"id":"w1316552990","name":null,"cat":"lodging","sub":"hotel","lat":38.0436,"lon":-78.90429,"tags":{},"routes":{"out":{"m":95.8,"o":2.34},"retFast":{"m":434.3,"o":0.13}}},{"id":"w1330071637","name":null,"cat":"lodging","sub":"hotel","lat":38.04426,"lon":-78.9043,"tags":{},"routes":{"out":{"m":95.8,"o":2.37},"retFast":{"m":434.3,"o":0.09}}},{"id":"w920897254","name":"Belle Hearth Bed & Breakfast","cat":"lodging","sub":"guest_house","lat":38.06546,"lon":-78.89056,"tags":{"phone":"+1-540-943-1910"},"routes":{"out":{"m":94.4,"o":2.69},"retFast":{"m":434.1,"o":1.54}}},{"id":"w1124792589","name":"Walmart Gas","cat":"fuel","sub":"fuel","lat":38.07142,"lon":-78.8947,"tags":{"brand":"Walmart","opening_hours":"Mo-Su 06:00-22:00","website":"https://www.walmart.com/store/4388-waynesboro-va"},"routes":{"out":{"m":94.4,"o":3.15},"retFast":{"m":433.7,"o":1.75}}},{"id":"w1173836624","name":"Econo Lodge","cat":"lodging","sub":"motel","lat":38.06986,"lon":-78.89347,"tags":{"brand":"Econo Lodge","phone":"+1 540-942-1174","website":"https://www.choicehotels.com/virginia/waynesboro/econo-lodge-hotels/va905"},"routes":{"out":{"m":94.4,"o":3.03},"retFast":{"m":433.8,"o":1.7}}},{"id":"w921151269","name":"Quality Inn","cat":"lodging","sub":"hotel","lat":38.06994,"lon":-78.89243,"tags":{"brand":"Quality Inn","phone":"+1-540-910-9723","website":"https://www.choicehotels.com/virginia/waynesboro/quality-inn-hotels/va104"},"routes":{"out":{"m":94.4,"o":3},"retFast":{"m":433.9,"o":1.74}}},{"id":"w240589473","name":"Royal India Palace","cat":"food","sub":"restaurant","lat":38.06858,"lon":-78.88746,"tags":{"website":"https://www.royalindiapalacewb.com/","cuisine":"indian"},"routes":{"out":{"m":94.4,"o":2.77},"retFast":{"m":434.1,"o":1.81}}},{"id":"w240589477","name":"The Green Leaf Grill","cat":"food","sub":"restaurant","lat":38.06873,"lon":-78.88894,"tags":{"opening_hours":"Tu-Th 11:00-21:00; Fr-Sa 11:00-22:00; Su 11:00-21:00","phone":"+1-540-949-4416","website":"http://www.thegreenleafgrill.com/","cuisine":"creole;cajun;american"},"routes":{"out":{"m":94.4,"o":2.82},"retFast":{"m":434.1,"o":1.77}}},{"id":"w240641368","name":"Ming Garden Chinese Restaurant","cat":"food","sub":"restaurant","lat":38.06739,"lon":-78.8883,"tags":{"phone":"+1-540-942-8800","website":"https://minggardenwbo.com/","cuisine":"chinese"},"routes":{"out":{"m":94.4,"o":2.73},"retFast":{"m":434.1,"o":1.72}}},{"id":"w240641373","name":"Benny Stivales","cat":"food","sub":"restaurant","lat":38.06821,"lon":-78.8884,"tags":{"opening_hours":"Su-Th 11:00-22:00, Fr-Sa 11:00-00:00","phone":"+1-540-221-4554","website":"https://www.bennysva.com/locations/benny-stivales/","cuisine":"pizza"},"routes":{"out":{"m":94.4,"o":2.78},"retFast":{"m":434.1,"o":1.76}}},{"id":"w366600956","name":"Weasie's","cat":"food","sub":"restaurant","lat":38.06875,"lon":-78.8836,"tags":{"opening_hours":"Mo-Tu 06:00-15:00; We-Fr 06:00-20:00; Sa 06:00-14:00","phone":"+1-540-943-0500","website":"https://weasieskitchen.net/","cuisine":"american"},"routes":{"out":{"m":94.4,"o":2.68},"retFast":{"m":435.8,"o":1.91}}},{"id":"w1316746880","name":"Royal","cat":"fuel","sub":"fuel","lat":38.06889,"lon":-78.88226,"tags":{},"routes":{"out":{"m":94.4,"o":2.66},"retFast":{"m":435.8,"o":1.92}}},{"id":"w1316746882","name":"Shell","cat":"fuel","sub":"fuel","lat":38.06858,"lon":-78.88156,"tags":{"brand":"Shell"},"routes":{"out":{"m":94.4,"o":2.62},"retFast":{"m":435.8,"o":1.89}}},{"id":"w1316793929","name":"Dani's Pizza","cat":"food","sub":"restaurant","lat":38.0675,"lon":-78.88124,"tags":{"opening_hours":"Mo-Fr 11:00-20:30","phone":"+1-540-943-5575","website":"https://www.danispizzava.com/","cuisine":"pizza"},"routes":{"out":{"m":94.4,"o":2.55},"retFast":{"m":435.8,"o":1.81}}},{"id":"w1462447811","name":"Exxon","cat":"fuel","sub":"fuel","lat":38.08145,"lon":-78.92786,"tags":{"brand":"Exxon"},"routes":{"out":{"m":94.4,"o":4.88},"retFast":{"m":432.1,"o":1.59}}},{"id":"w1004202126","name":"Speedway","cat":"fuel","sub":"fuel","lat":38.0801,"lon":-78.92308,"tags":{"brand":"Speedway","website":"https://www.speedway.com/locations/va/waynesboro/2601-w-main-st-45988"},"routes":{"out":{"m":94.4,"o":4.62},"retFast":{"m":432.4,"o":1.6}}},{"id":"w1412262800","name":null,"cat":"fuel","sub":"fuel","lat":38.10397,"lon":-78.8559,"tags":{},"routes":{"out":{"m":92.1,"o":4.6},"retFast":{"m":436,"o":4.47}}},{"id":"w971487539","name":"Liberty","cat":"fuel","sub":"fuel","lat":37.93069,"lon":-78.83879,"tags":{"brand":"Liberty"},"routes":{"out":{"m":100.9,"o":4.16}}},{"id":"w1347109345","name":"Paulie's Pig Out","cat":"food","sub":"restaurant","lat":37.94287,"lon":-78.83665,"tags":{"phone":"+1-434-361-2001","cuisine":"barbecue"},"routes":{"out":{"m":100.8,"o":3.79}}},{"id":"w1504011215","name":"BP","cat":"fuel","sub":"fuel","lat":37.99195,"lon":-78.83695,"tags":{"brand":"BP","opening_hours":"24/7","phone":"+1-540-456-6379","website":"https://map.bp.com/en-US/US/gas-station/afton/bp/60850647149212292000100000962388"},"routes":{"out":{"m":96.1,"o":2.61},"retFast":{"m":437.6,"o":2.99}}},{"id":"w1042525168","name":"Sunoco","cat":"fuel","sub":"fuel","lat":38.03315,"lon":-78.76533,"tags":{"brand":"Sunoco","phone":"+1 540-456-6340","website":"https://www.sunoco.com/locations/store/7653-rockfish-gap-tpke-greenwood-va-0225428200"},"routes":{"out":{"m":88.6,"o":0.86},"retFast":{"m":442.8,"o":0.85}}},{"id":"w750317042","name":"Misty Mountain Camp Resort","cat":"camping","sub":"camp_site","lat":38.03764,"lon":-78.73945,"tags":{"phone":"+1-540-456-6409","website":"https://www.mistymountaincampresort.com/"},"routes":{"out":{"m":87.5,"o":0.64},"retFast":{"m":443.9,"o":0.63}}},{"id":"w1458588387","name":"Exxon","cat":"fuel","sub":"fuel","lat":38.04994,"lon":-78.70977,"tags":{"brand":"Exxon"},"routes":{"out":{"m":85.9,"o":0.71},"retFast":{"m":445.5,"o":0.73}}},{"id":"w1458588389","name":"Citgo","cat":"fuel","sub":"fuel","lat":38.04972,"lon":-78.71284,"tags":{"brand":"Citgo"},"routes":{"out":{"m":86.1,"o":0.63},"retFast":{"m":445.3,"o":0.66}}},{"id":"w1458588390","name":"BP","cat":"fuel","sub":"fuel","lat":38.04889,"lon":-78.71257,"tags":{"brand":"BP"},"routes":{"out":{"m":86,"o":0.59},"retFast":{"m":445.4,"o":0.61}}},{"id":"w665480391","name":"Whistle Stop Grill","cat":"food","sub":"restaurant","lat":38.06897,"lon":-78.70146,"tags":{"cuisine":"american"},"routes":{"out":{"m":85.8,"o":2.1},"retFast":{"m":445.5,"o":2.12}}},{"id":"w665480397","name":"Praha Bohemian Bakery and Cafe","cat":"food","sub":"cafe","lat":38.06962,"lon":-78.69892,"tags":{"opening_hours":"Mo-Su 07:00-17:00","phone":"+1-434-205-4485","website":"https://www.prahabakery.com/","cuisine":"american;czech"},"routes":{"out":{"m":85.7,"o":2.18},"retFast":{"m":445.6,"o":2.21}}},{"id":"w888290497","name":"Scott's Ivy Exxon","cat":"fuel","sub":"fuel","lat":38.05605,"lon":-78.59496,"tags":{"brand":"Exxon","phone":"+1-434-293-2033","website":"https://www.exxon.com/"},"routes":{"out":{"m":79.7,"o":1.56},"retFast":{"m":451.7,"o":1.58}}},{"id":"w248455412","name":"Exxon","cat":"fuel","sub":"fuel","lat":37.99999,"lon":-78.49763,"tags":{"brand":"Exxon"},"routes":{"out":{"m":73.4,"o":0.51},"retFast":{"m":457.6,"o":0.83}}},{"id":"w676941970","name":"BP","cat":"fuel","sub":"fuel","lat":38.02572,"lon":-78.51966,"tags":{"brand":"BP"},"routes":{"out":{"m":75.4,"o":0.86},"retFast":{"m":455.9,"o":0.88}}},{"id":"w676941971","name":"Exxon","cat":"fuel","sub":"fuel","lat":38.02606,"lon":-78.5155,"tags":{"brand":"Exxon","opening_hours":"24/7"},"routes":{"out":{"m":75.3,"o":1.05},"retFast":{"m":456.1,"o":1.06}}},{"id":"w676942056","name":"Wayside Takeout And Catering","cat":"food","sub":"restaurant","lat":38.02537,"lon":-78.51529,"tags":{"opening_hours":"Mo-Sa 09:00-21:00","phone":"+1-434-977-5000","website":"https://www.waysidechicken.com/","cuisine":"chicken;fried_chicken"},"routes":{"out":{"m":75.3,"o":1.02},"retFast":{"m":456.2,"o":1.04}}},{"id":"w378868504","name":"Sleep Inn & Suites Monticello","cat":"lodging","sub":"hotel","lat":38.01125,"lon":-78.50543,"tags":{"brand":"Sleep Inn & Suites","phone":"+1 434-244-9969","website":"https://www.choicehotels.com/virginia/waynesboro/comfort-inn-hotels"},"routes":{"out":{"m":73.8,"o":0.22},"retFast":{"m":457.7,"o":0.05}}},{"id":"w935682221","name":"Affordable Suites of America","cat":"lodging","sub":"hotel","lat":38.01416,"lon":-78.50197,"tags":{},"routes":{"out":{"m":73.7,"o":0.44},"retFast":{"m":458,"o":0.07}}},{"id":"w921319693","name":"Holiday Inn Charlottesville-Monticello","cat":"lodging","sub":"hotel","lat":38.00903,"lon":-78.50629,"tags":{"brand":"Holiday Inn"},"routes":{"out":{"m":73.9,"o":0.07},"retFast":{"m":457.6,"o":0.05}}},{"id":"w254092819","name":"Burger King","cat":"food","sub":"fast_food","lat":38.01122,"lon":-78.50493,"tags":{"brand":"Burger King","opening_hours":"Mo-Sa 06:00-21:00; Su 07:00-20:00","phone":"+1 434-963-7827","website":"https://www.bk.com/store-locator/store/restaurant_6548","cuisine":"burger"},"routes":{"out":{"m":73.8,"o":0.22},"retFast":{"m":457.7,"o":0.04}}},{"id":"w378868505","name":"Taco Bell","cat":"food","sub":"fast_food","lat":38.0115,"lon":-78.50268,"tags":{"brand":"Taco Bell","opening_hours":"Mo-Su 09:00-01:00","phone":"+1 434-295-9185","website":"https://locations.tacobell.com/va/charlottesville/1158-5th-street-s-w-.html","cuisine":"tex-mex"},"routes":{"out":{"m":73.7,"o":0.26},"retFast":{"m":457.8,"o":0.03}}},{"id":"w378868512","name":"Exxon","cat":"fuel","sub":"fuel","lat":38.01178,"lon":-78.50256,"tags":{"brand":"Exxon","opening_hours":"PH,Mo-Su 12:00-24:00+"},"routes":{"out":{"m":73.7,"o":0.28},"retFast":{"m":457.8,"o":0.02}}},{"id":"w1493547831","name":"Wawa","cat":"fuel","sub":"fuel","lat":38.01219,"lon":-78.50179,"tags":{"brand":"Wawa"},"routes":{"out":{"m":73.6,"o":0.31},"retFast":{"m":457.9,"o":0.03}}},{"id":"w894330429","name":"Krispy Kreme","cat":"food","sub":"fast_food","lat":38.01054,"lon":-78.49766,"tags":{"brand":"Krispy Kreme","cuisine":"donut"},"routes":{"out":{"m":73.4,"o":0.21},"retFast":{"m":457.9,"o":0.27}}},{"id":"w659984648","name":"Fairfield Inn & Suites Charlottesville Downtown/University Area","cat":"lodging","sub":"hotel","lat":38.02642,"lon":-78.48927,"tags":{"brand":"Fairfield Inn & Suites","website":"https://www.marriott.com/chofc"},"routes":{"out":{"m":72.5,"o":1.22},"retFast":{"m":459.1,"o":0.05}}},{"id":"w880389289","name":"The Inn At Monticello","cat":"lodging","sub":"hotel","lat":38.00118,"lon":-78.48389,"tags":{},"routes":{"out":{"m":72.8,"o":0.52},"retFast":{"m":458,"o":1.26}}},{"id":"w845383560","name":"Colle","cat":"lodging","sub":"guest_house","lat":37.99013,"lon":-78.43796,"tags":{"website":"https://www.staycharlottesville.com/property/colle"},"routes":{"out":{"m":70.4,"o":1.95},"retFast":{"m":463.5,"o":1.93}}},{"id":"w385361816","name":"BP","cat":"fuel","sub":"fuel","lat":38.01546,"lon":-78.47305,"tags":{"brand":"BP"},"routes":{"out":{"m":71.9,"o":0.21},"retFast":{"m":460.2,"o":0.98}}},{"id":"w305491716","name":"Hilton Garden Inn Charlottesville","cat":"lodging","sub":"hotel","lat":38.02464,"lon":-78.43836,"tags":{"brand":"Hilton Garden Inn","phone":"+1-434-979-4442","website":"https://www.hilton.com/en/hotels/chochgi-hilton-garden-inn-charlottesville/"},"routes":{"out":{"m":69.9,"o":0.37},"retFast":{"m":462.6,"o":0.08}}},{"id":"w1312615631","name":"Pink Cottage @ Locust Grange","cat":"lodging","sub":"chalet","lat":38.04331,"lon":-78.51886,"tags":{},"routes":{"out":{"m":75.8,"o":1.84},"retFast":{"m":455.6,"o":1.85}}},{"id":"w676684396","name":"Shell","cat":"fuel","sub":"fuel","lat":38.04462,"lon":-78.51559,"tags":{"brand":"Shell","opening_hours":"24/7"},"routes":{"out":{"m":75.7,"o":2.01},"retFast":{"m":459.5,"o":1.92}}},{"id":"w253736676","name":"Hampton Inn and Suites Charlottesville - At The University","cat":"lodging","sub":"hotel","lat":38.03216,"lon":-78.49426,"tags":{"brand":"Hampton Inn & Suites","phone":"+1 434-923-8600","website":"https://www.hilton.com/en/hotels/chomshx-hampton-suites-charlottesville-at-the-university/"},"routes":{"out":{"m":72.6,"o":1.69},"retFast":{"m":459.4,"o":0.5}}},{"id":"w382396953","name":null,"cat":"fuel","sub":"fuel","lat":38.02873,"lon":-78.49487,"tags":{},"routes":{"out":{"m":72.7,"o":1.47},"retFast":{"m":458.9,"o":0.36}}},{"id":"w382400479","name":"Exxon","cat":"fuel","sub":"fuel","lat":38.02794,"lon":-78.4917,"tags":{"brand":"Exxon"},"routes":{"out":{"m":72.6,"o":1.36},"retFast":{"m":459,"o":0.21}}},{"id":"w1125517504","name":"The Doyle Hotel","cat":"lodging","sub":"hotel","lat":38.03129,"lon":-78.48754,"tags":{"phone":"+14342050056","website":"https://www.staybluesuede.com/hotels/the-doyle/"},"routes":{"out":{"m":72.3,"o":1.51},"retFast":{"m":459.5,"o":0.14}}},{"id":"w855188225","name":"Residence Inn Charlottesville Downtown","cat":"lodging","sub":"hotel","lat":38.03082,"lon":-78.48567,"tags":{"brand":"Residence Inn","phone":"+1 434-220-0075","website":"https://www.marriott.com/chowr"},"routes":{"out":{"m":72.2,"o":1.44},"retFast":{"m":459.5,"o":0.03}}},{"id":"w1049684282","name":"Virginia Guesthouse","cat":"lodging","sub":"hotel","lat":38.04211,"lon":-78.50881,"tags":{"website":"https://www.virginiaguesthouse.com/"},"routes":{"out":{"m":75.6,"o":2.09},"retFast":{"m":459.5,"o":1.51}}},{"id":"w855188222","name":"Sonesta ES Suites Charlottesville University","cat":"lodging","sub":"hotel","lat":38.05271,"lon":-78.5032,"tags":{"brand":"Sonesta ES Suites","phone":"+1-434-923-0300","website":"https://www.sonesta.com/sonesta-es-suites/va/charlottesville/sonesta-es-suites-charlottesville-university"},"routes":{"out":{"m":75.7,"o":2.85},"retFast":{"m":459.5,"o":1.82}}},{"id":"w1064856076","name":"Exxon","cat":"fuel","sub":"fuel","lat":38.05641,"lon":-78.50256,"tags":{"brand":"Exxon"},"routes":{"out":{"m":75.7,"o":3.08},"retFast":{"m":459.5,"o":2.02}}},{"id":"w1088035168","name":"BP","cat":"fuel","sub":"fuel","lat":38.05431,"lon":-78.50098,"tags":{"brand":"BP"},"routes":{"out":{"m":75.7,"o":3.01},"retFast":{"m":459.5,"o":1.85}}},{"id":"w1064856073","name":"Exxon","cat":"fuel","sub":"fuel","lat":38.05895,"lon":-78.49347,"tags":{"brand":"Exxon"},"routes":{"out":{"m":71.9,"o":3.41},"retFast":{"m":459.7,"o":1.98}}},{"id":"w360589369","name":null,"cat":"fuel","sub":"fuel","lat":38.06006,"lon":-78.49246,"tags":{},"routes":{"out":{"m":71.8,"o":3.47},"retFast":{"m":459.7,"o":2.04}}},{"id":"w1064854870","name":"Exxon","cat":"fuel","sub":"fuel","lat":38.06222,"lon":-78.49208,"tags":{"brand":"Exxon"},"routes":{"out":{"m":71.8,"o":3.6},"retFast":{"m":459.7,"o":2.18}}},{"id":"w382372703","name":"Home2 Suites","cat":"lodging","sub":"hotel","lat":38.02892,"lon":-78.4852,"tags":{"brand":"Home2 Suites","phone":"+1 434-295-0003","website":"https://www.hilton.com/en/hotels/chodnht-home2-suites-charlottesville-downtown/"},"routes":{"out":{"m":72.2,"o":1.31},"retFast":{"m":459.3,"o":0.04}}},{"id":"w385511199","name":"200 South Street Inn","cat":"lodging","sub":"guest_house","lat":38.02944,"lon":-78.48308,"tags":{"phone":"+1 434 9790200","website":"https://www.southstreetinn.com/"},"routes":{"out":{"m":72.1,"o":1.3},"retFast":{"m":459.6,"o":0.06}}},{"id":"w389462505","name":"Omni Charlottesville Hotel","cat":"lodging","sub":"hotel","lat":38.03176,"lon":-78.48381,"tags":{"phone":"+1-434-971-5500","website":"https://www.omnihotels.com/hotels/charlottesville"},"routes":{"out":{"m":72.1,"o":1.47},"retFast":{"m":459.5,"o":0.07}}},{"id":"w389633142","name":"The Inn at 400 West High","cat":"lodging","sub":"guest_house","lat":38.03365,"lon":-78.48257,"tags":{"phone":"+1-434-981-0458","website":"https://www.400westhigh.com/"},"routes":{"out":{"m":71.9,"o":1.57},"retFast":{"m":459.7,"o":0.14}}},{"id":"w332914587","name":"Guadalajara","cat":"food","sub":"restaurant","lat":38.02995,"lon":-78.47545,"tags":{"opening_hours":"Mo-Fr 11:00-22:00; Sa 11:30-22:00; Su 11:30-21:00","phone":"+1-434-977-2676","website":"https://www.guadalajaramexicanva.com/","cuisine":"mexican"},"routes":{"out":{"m":71.7,"o":1.19},"retFast":{"m":460.2,"o":0.02}}},{"id":"w389457165","name":"Inn at Court Square","cat":"lodging","sub":"hotel","lat":38.03136,"lon":-78.47833,"tags":{},"routes":{"out":{"m":71.8,"o":1.34},"retFast":{"m":459.9,"o":0.04}}},{"id":"w1049719212","name":"Marathon","cat":"fuel","sub":"fuel","lat":38.02978,"lon":-78.47484,"tags":{"brand":"Marathon"},"routes":{"out":{"m":71.7,"o":1.17},"retFast":{"m":460.2,"o":0.01}}},{"id":"w396519098","name":"Exxon","cat":"fuel","sub":"fuel","lat":38.03548,"lon":-78.48568,"tags":{"brand":"Exxon"},"routes":{"out":{"m":72.1,"o":1.74},"retFast":{"m":459.7,"o":0.33}}},{"id":"w396519126","name":"Coastal","cat":"fuel","sub":"fuel","lat":38.03836,"lon":-78.48174,"tags":{"brand":"Coastal"},"routes":{"out":{"m":71.8,"o":1.86},"retFast":{"m":459.7,"o":0.46}}},{"id":"w1292502367","name":"La Michoacana","cat":"food","sub":"restaurant","lat":38.03176,"lon":-78.46687,"tags":{"opening_hours":"Mo-Sa 11:00-21:00","phone":"+1-434-202-1336","cuisine":"mexican"},"routes":{"out":{"m":71.3,"o":1.17},"retFast":{"m":460.7,"o":0.01}}},{"id":"w324623530","name":"Riverside Lunch","cat":"food","sub":"restaurant","lat":38.03325,"lon":-78.46261,"tags":{"opening_hours":"Mo-Fr 09:00-21:00; Sa 11:00-21:00; Su 11:00-20:30","phone":"+1-434-971-3546","cuisine":"burger"},"routes":{"out":{"m":71.1,"o":1.21},"retFast":{"m":461,"o":0.02}}},{"id":"w324623543","name":"Jak 'n' Jil","cat":"food","sub":"restaurant","lat":38.03246,"lon":-78.463,"tags":{"opening_hours":"Mo-Sa 11:00-19:00; Su off","phone":"+1-434-293-7213","cuisine":"burger"},"routes":{"out":{"m":71.2,"o":1.17},"retFast":{"m":460.9,"o":0.02}}},{"id":"w337899126","name":"Tubby's","cat":"food","sub":"restaurant","lat":38.0319,"lon":-78.4642,"tags":{"opening_hours":"Mo-Fr 10:30-19:00; Sa-Su off","phone":"+1-434-293-3825","website":"https://www.tubbyscville.com/","cuisine":"deli;sandwich"},"routes":{"out":{"m":71.2,"o":1.14},"retFast":{"m":460.8,"o":0.02}}},{"id":"w1049746939","name":"Sunoco","cat":"fuel","sub":"fuel","lat":38.03199,"lon":-78.46603,"tags":{"brand":"Sunoco"},"routes":{"out":{"m":71.3,"o":1.17},"retFast":{"m":460.7,"o":0.01}}},{"id":"w1087596214","name":"Fairhaven Guesthouse","cat":"lodging","sub":"guest_house","lat":38.028,"lon":-78.46342,"tags":{},"routes":{"out":{"m":71.2,"o":0.87},"retFast":{"m":460.8,"o":0.29}}},{"id":"w1004614895","name":"Shell","cat":"fuel","sub":"fuel","lat":38.03377,"lon":-78.45782,"tags":{"brand":"Shell"},"routes":{"out":{"m":70.9,"o":1.21},"retFast":{"m":461.3,"o":0.03}}},{"id":"w995955386","name":"Quarles","cat":"fuel","sub":"fuel","lat":38.03861,"lon":-78.45637,"tags":{"brand":"Quarles"},"routes":{"out":{"m":70.8,"o":1.52},"retFast":{"m":461.2,"o":0.31}}},{"id":"w1004614898","name":"Exxon","cat":"fuel","sub":"fuel","lat":38.03419,"lon":-78.45538,"tags":{"brand":"Exxon","opening_hours":"Mo-Sa 06:00-23:00; Su 07:00-21:00"},"routes":{"out":{"m":70.8,"o":1.21},"retFast":{"m":461.4,"o":0.03}}},{"id":"w1486505429","name":"Wawa","cat":"fuel","sub":"fuel","lat":38.03418,"lon":-78.45264,"tags":{"brand":"Wawa"},"routes":{"out":{"m":70.6,"o":1.18},"retFast":{"m":461.6,"o":0.03}}},{"id":"w1153372812","name":"Exxon","cat":"fuel","sub":"fuel","lat":38.07032,"lon":-78.48364,"tags":{"brand":"Exxon","opening_hours":"24/7","phone":"+1 434-975-0014","website":"https://www.exxon.com/en/find-station/exxon-charlottesville-va-greenbrier711-200318810"},"routes":{"out":{"m":71.4,"o":3.98},"retFast":{"m":459.7,"o":2.67}}},{"id":"w1312490520","name":"Wawa","cat":"fuel","sub":"fuel","lat":38.06955,"lon":-78.48409,"tags":{"brand":"Wawa"},"routes":{"out":{"m":71.4,"o":3.93},"retFast":{"m":459.7,"o":2.62}}},{"id":"w1111804043","name":"Lake Monticello Owners Association Campground","cat":"camping","sub":"camp_site","lat":37.92881,"lon":-78.35336,"tags":{},"routes":{"out":{"m":64.2,"o":4.83}}},{"id":"w1409557291","name":"Exxon","cat":"fuel","sub":"fuel","lat":37.97373,"lon":-78.21738,"tags":{"brand":"Exxon"},"routes":{"out":{"m":57.2,"o":0.31}}},{"id":"w150107962","name":"Shell","cat":"fuel","sub":"fuel","lat":37.97339,"lon":-78.2164,"tags":{"brand":"Shell"},"routes":{"out":{"m":57.1,"o":0.31}}},{"id":"w150107966","name":"McDonald's","cat":"food","sub":"fast_food","lat":37.97365,"lon":-78.21551,"tags":{"brand":"McDonald's","website":"https://www.mcdonalds.com/us/en-us/location/va/gordonsville/11445-james-madison-hwy/14719.html","cuisine":"burger"},"routes":{"out":{"m":57.1,"o":0.27}}},{"id":"w1411594269","name":null,"cat":"fuel","sub":"fuel","lat":37.97311,"lon":-78.216,"tags":{},"routes":{"out":{"m":57.1,"o":0.31}}},{"id":"w1038123961","name":"Arcady Vineyard Bed and Breakfast","cat":"lodging","sub":"guest_house","lat":37.99767,"lon":-78.42093,"tags":{},"routes":{"out":{"m":68.7,"o":1.61},"retFast":{"m":464,"o":1.24}}},{"id":"w1151098412","name":"Comfort Inn - Monticello","cat":"lodging","sub":"hotel","lat":38.01974,"lon":-78.42725,"tags":{"brand":"Comfort Inn","phone":"+1-434-977-3300","website":"https://www.choicehotels.com/virginia/charlottesville/comfort-inn-hotels/va382"},"routes":{"out":{"m":69.4,"o":0.1},"retFast":{"m":463.3,"o":0.13}}},{"id":"w1488713379","name":"Exxon","cat":"fuel","sub":"fuel","lat":38.01369,"lon":-78.39582,"tags":{"brand":"Exxon"},"routes":{"out":{"m":67.6,"o":0.16},"retFast":{"m":465.3,"o":0.02}}},{"id":"w1294903890","name":"Boyd Tavern Market","cat":"food","sub":"restaurant","lat":37.98795,"lon":-78.33466,"tags":{"opening_hours":"Tu0Fr 08:00-15:00; Sa 09:00-14:00","phone":"+1-434-465-2867"},"routes":{"out":{"m":64,"o":0.64},"retFast":{"m":467.5,"o":2.76}}},{"id":"w358979872","name":"Keswick Hall","cat":"lodging","sub":"hotel","lat":38.01693,"lon":-78.36646,"tags":{"phone":"+1-434-979-3440","website":"https://www.keswick.com/"},"routes":{"out":{"m":66.2,"o":0.58},"retFast":{"m":466.8,"o":0.27}}},{"id":"w1512741696","name":"Marigold by Jean-Georges","cat":"food","sub":"restaurant","lat":38.01769,"lon":-78.36644,"tags":{},"routes":{"out":{"m":66.2,"o":0.63},"retFast":{"m":466.8,"o":0.22}}},{"id":"w451993619","name":"IHOP","cat":"food","sub":"restaurant","lat":37.97965,"lon":-78.21412,"tags":{"brand":"IHOP","cuisine":"breakfast;pancake"},"routes":{"out":{"m":57.2,"o":0.13}}},{"id":"w1234006724","name":"Starbucks","cat":"food","sub":"cafe","lat":37.97984,"lon":-78.21233,"tags":{"brand":"Starbucks","phone":"+1 540-889-3275","website":"https://www.starbucks.com/store-locator/store/1032473/i-64-route-15-zion-crossroa-95-wood-ridge-terrace-zion-crossroads-","cuisine":"coffee_shop"},"routes":{"out":{"m":57.2,"o":0.19}}},{"id":"w1311389627","name":"Rhett's Bar & Grill","cat":"food","sub":"restaurant","lat":37.98054,"lon":-78.21351,"tags":{"opening_hours":"Mo-Su 11:00-22:00","phone":"+1-540-832-6280","website":"https://www.rhettsgrill.com/","cuisine":"burger;sandwich;seafood"},"routes":{"out":{"m":57.2,"o":0.2}}},{"id":"w1311389624","name":"7-Eleven","cat":"fuel","sub":"fuel","lat":37.98183,"lon":-78.21092,"tags":{"brand":"7-Eleven","opening_hours":"24/7"},"routes":{"out":{"m":57.2,"o":0.35}}},{"id":"w1411980478","name":"Hampton Inn","cat":"lodging","sub":"hotel","lat":37.98272,"lon":-78.20984,"tags":{"brand":"Hampton"},"routes":{"out":{"m":57.1,"o":0.43}}},{"id":"w305805633","name":"McDonald's","cat":"food","sub":"fast_food","lat":38.01996,"lon":-77.99476,"tags":{"brand":"McDonald's","website":"https://www.mcdonalds.com/us/en-us/location/va/louisa/406-e-main-st/12664.html","cuisine":"burger"},"routes":{"out":{"m":42.2,"o":0.32}}},{"id":"w1064560569","name":"Joe's Place Pizza and Subs","cat":"food","sub":"restaurant","lat":38.02016,"lon":-77.99632,"tags":{"cuisine":"pizza;sandwich"},"routes":{"out":{"m":42.2,"o":0.24}}},{"id":"w1064560570","name":"Panda Garden Chinese Buffet","cat":"food","sub":"restaurant","lat":38.02026,"lon":-77.99665,"tags":{"cuisine":"chinese"},"routes":{"out":{"m":42.2,"o":0.22}}},{"id":"w1064560567","name":"Hardee's","cat":"food","sub":"fast_food","lat":38.02046,"lon":-77.9931,"tags":{"brand":"Hardee's","opening_hours":"Mo-Th 05:00-22:00; Fr, Sa 05:00-23:00; Su 06:00-22:00","phone":"+1 540-967-9592","website":"https://locations.hardees.com/va/louisa/413-east-main","cuisine":"burger"},"routes":{"out":{"m":41.7,"o":0.37}}},{"id":"w1064560572","name":"Sheetz","cat":"fuel","sub":"fuel","lat":38.02171,"lon":-77.99979,"tags":{"brand":"Sheetz"},"routes":{"out":{"m":42.2,"o":0.03}}},{"id":"w1216635376","name":"Christopher Run Campground","cat":"camping","sub":"camp_site","lat":38.09871,"lon":-77.89046,"tags":{"website":"https://www.christopherruncampground.com/"},"routes":{"out":{"m":32.6,"o":0.92}}},{"id":"w1216635391","name":"Christopher Run Field Sites","cat":"camping","sub":"camp_site","lat":38.10101,"lon":-77.89168,"tags":{},"routes":{"out":{"m":32.6,"o":1.02}}},{"id":"w1207063154","name":"Shell","cat":"fuel","sub":"fuel","lat":38.08046,"lon":-77.87898,"tags":{"brand":"Shell"},"routes":{"out":{"m":31.2,"o":0.03}}},{"id":"w1207653705","name":null,"cat":"fuel","sub":"fuel","lat":38.08475,"lon":-77.82718,"tags":{},"routes":{"out":{"m":28.2,"o":0.03}}},{"id":"w877682789","name":"Lighthouse Inn","cat":"lodging","sub":"motel","lat":38.08825,"lon":-77.81203,"tags":{},"routes":{"out":{"m":27.2,"o":0.13}}},{"id":"w430476822","name":null,"cat":"camping","sub":"camp_site","lat":38.10945,"lon":-77.82662,"tags":{},"routes":{"out":{"m":28.1,"o":1.71}}},{"id":"w1210536644","name":"Citgo","cat":"fuel","sub":"fuel","lat":38.1341,"lon":-77.86806,"tags":{"brand":"Citgo"},"routes":{"out":{"m":30,"o":3.59}}},{"id":"w635629798","name":null,"cat":"fuel","sub":"fuel","lat":38.11762,"lon":-77.76082,"tags":{},"routes":{"out":{"m":23.3,"o":0.01}}},{"id":"w1099366930","name":null,"cat":"fuel","sub":"fuel","lat":38.19524,"lon":-77.58875,"tags":{},"routes":{"out":{"m":11.1,"o":0.78}}},{"id":"w301601156","name":"Courthouse Cafe","cat":"food","sub":"restaurant","lat":38.20045,"lon":-77.58853,"tags":{},"routes":{"out":{"m":11,"o":0.43}}},{"id":"w303985922","name":"Snack Shack","cat":"food","sub":"fast_food","lat":38.1988,"lon":-77.58678,"tags":{"cuisine":"burger"},"routes":{"out":{"m":11,"o":0.56}}},{"id":"w568788747","name":"7-Eleven","cat":"fuel","sub":"fuel","lat":38.20312,"lon":-77.58614,"tags":{"brand":"7-Eleven"},"routes":{"out":{"m":10.9,"o":0.28}}},{"id":"w1273201797","name":"Valero","cat":"fuel","sub":"fuel","lat":38.19917,"lon":-77.58714,"tags":{"brand":"Valero","website":"https://locations.valero.com/en-us/LocationDetails/Index/8905-COURTHOUSE-RD/0000003443"},"routes":{"out":{"m":11,"o":0.53}}},{"id":"w1499430761","name":"El Gran Patron","cat":"food","sub":"restaurant","lat":38.20553,"lon":-77.59091,"tags":{"cuisine":"mexican"},"routes":{"out":{"m":11.1,"o":0.06}}},{"id":"w868007354","name":null,"cat":"fuel","sub":"fuel","lat":38.20882,"lon":-77.57767,"tags":{},"routes":{"out":{"m":10.4,"o":0.05}}},{"id":"w1214696667","name":null,"cat":"fuel","sub":"fuel","lat":38.215,"lon":-77.54396,"tags":{},"routes":{"out":{"m":9.1,"o":1.37}}},{"id":"w51857827","name":"Hardee's","cat":"food","sub":"fast_food","lat":38.23369,"lon":-77.55825,"tags":{"brand":"Hardee's","phone":"+1 540-898-2683","website":"https://locations.hardees.com/va/spotsylvania/9811-courthouse-rd","cuisine":"burger"},"routes":{"out":{"m":8.3,"o":0.04},"retFast":{"m":521,"o":3.91}}},{"id":"w824224652","name":null,"cat":"fuel","sub":"fuel","lat":38.23443,"lon":-77.55891,"tags":{},"routes":{"out":{"m":8.3,"o":0.02},"retFast":{"m":521,"o":3.86}}},{"id":"w1039060661","name":null,"cat":"fuel","sub":"fuel","lat":38.18931,"lon":-77.51053,"tags":{},"routes":{"out":{"m":9.8,"o":3.76}}},{"id":"w665092528","name":"Valero","cat":"fuel","sub":"fuel","lat":38.19244,"lon":-77.50998,"tags":{"brand":"Valero","website":"https://locations.valero.com/en-us/LocationDetails/Index/8520-JEFF-DAVIS-HWY/0000003352"},"routes":{"out":{"m":7.2,"o":3.66}}},{"id":"w627148865","name":"Sheetz","cat":"fuel","sub":"fuel","lat":38.2222,"lon":-77.49205,"tags":{"brand":"Sheetz"},"routes":{"out":{"m":5.6,"o":2.1}}},{"id":"w38884405","name":"I-95 Fuel Stop","cat":"fuel","sub":"fuel","lat":38.23402,"lon":-77.502,"tags":{"brand":"Citgo"},"routes":{"out":{"m":5.6,"o":1.12},"retFast":{"m":522,"o":4.14}}},{"id":"w321046034","name":"Candlewood Suites Fredericksburg","cat":"lodging","sub":"hotel","lat":38.2363,"lon":-77.50025,"tags":{"brand":"Candlewood Suites"},"routes":{"out":{"m":5.4,"o":1.04},"retFast":{"m":522,"o":4.04}}},{"id":"w494372947","name":"Holiday Inn Express Fredericksburg Southpoint","cat":"lodging","sub":"hotel","lat":38.23264,"lon":-77.50173,"tags":{"brand":"Holiday Inn Express"},"routes":{"out":{"m":5.6,"o":1.21},"retFast":{"m":522,"o":4.24}}},{"id":"w801941089","name":"Valero","cat":"fuel","sub":"fuel","lat":38.26105,"lon":-77.53952,"tags":{"brand":"Valero","website":"https://locations.valero.com/en-us/LocationDetails/Index/11035-LEAVELLS-RD/0000003341"},"routes":{"out":{"m":6.8,"o":1.27},"retFast":{"m":521.6,"o":1.92}}},{"id":"w842369772","name":"7-Eleven","cat":"fuel","sub":"fuel","lat":38.26168,"lon":-77.53967,"tags":{"brand":"7-Eleven"},"routes":{"out":{"m":6.8,"o":1.32},"retFast":{"m":521.6,"o":1.88}}},{"id":"w37528888","name":"Popeyes","cat":"food","sub":"fast_food","lat":38.24733,"lon":-77.51251,"tags":{"brand":"Popeyes","opening_hours":"10:00-24:00","phone":"+1 540-898-0406","website":"https://www.popeyes.com/store-locator/store/restaurant_82342","cuisine":"chicken"},"routes":{"out":{"m":5.6,"o":0.04},"retFast":{"m":522,"o":3.08}}},{"id":"w37528904","name":"Sweet n Sassy","cat":"food","sub":"restaurant","lat":38.24755,"lon":-77.51224,"tags":{"cuisine":"barbecue"},"routes":{"out":{"m":5.6,"o":0.03},"retFast":{"m":522,"o":3.07}}},{"id":"w921299966","name":"Fairfield Inn & Suites Fredericksburg","cat":"lodging","sub":"hotel","lat":38.24172,"lon":-77.4978,"tags":{"brand":"Fairfield Inn & Suites","phone":"+1 540-891-9100","website":"https://www.marriott.com/fkbfi"},"routes":{"out":{"m":5.1,"o":0.79},"retFast":{"m":524.1,"o":3.72}}},{"id":"w39256397","name":"Hampton","cat":"lodging","sub":"hotel","lat":38.24364,"lon":-77.49664,"tags":{"brand":"Hampton","phone":"+1 540-898-5000","website":"https://www.hilton.com/en/hotels/frbhshx-hampton-suites-fredericksburg-south/"},"routes":{"out":{"m":5,"o":0.71},"retFast":{"m":524.1,"o":3.59}}},{"id":"w39256471","name":"Country Inn & Suites (I-95)","cat":"lodging","sub":"hotel","lat":38.24351,"lon":-77.50016,"tags":{"brand":"Country Inn & Suites","phone":"+1 540-898-1800","website":"https://www.radissonhotels.com/en-us/hotels/country-inn-fredericksburg-spotsylvania-va"},"routes":{"out":{"m":5.2,"o":0.62},"retFast":{"m":522.2,"o":3.58}}},{"id":"w39256711","name":"Stay 4 Less","cat":"lodging","sub":"motel","lat":38.24813,"lon":-77.49817,"tags":{},"routes":{"out":{"m":4.9,"o":0.4},"retFast":{"m":524.1,"o":3.28}}},{"id":"w39256790","name":"Royal Inn Motel","cat":"lodging","sub":"motel","lat":38.24822,"lon":-77.49961,"tags":{},"routes":{"out":{"m":5,"o":0.36},"retFast":{"m":524.1,"o":3.28}}},{"id":"w42004402","name":"Knights Inn","cat":"lodging","sub":"motel","lat":38.245,"lon":-77.49747,"tags":{"brand":"Knights Inn"},"routes":{"out":{"m":5,"o":0.61},"retFast":{"m":524.1,"o":3.5}}},{"id":"w43921226","name":"Super Value Inn","cat":"lodging","sub":"hotel","lat":38.24461,"lon":-77.50153,"tags":{},"routes":{"out":{"m":5.2,"o":0.51},"retFast":{"m":522.1,"o":3.48}}},{"id":"w494372948","name":"Econo Lodge","cat":"lodging","sub":"motel","lat":38.24537,"lon":-77.49974,"tags":{"brand":"Econo Lodge","phone":"+1 540-898-7100","website":"https://www.choicehotels.com/virginia/thornburg/quality-inn-hotels"},"routes":{"out":{"m":5.1,"o":0.52},"retFast":{"m":522.3,"o":3.48}}},{"id":"w494372949","name":"Travelodge Fredericksburg","cat":"lodging","sub":"hotel","lat":38.24631,"lon":-77.49743,"tags":{"brand":"Travelodge"},"routes":{"out":{"m":4.9,"o":0.53},"retFast":{"m":524.1,"o":3.41}}},{"id":"w562360468","name":"Red Roof Inn Fredericksburg South","cat":"lodging","sub":"hotel","lat":38.24509,"lon":-77.49791,"tags":{"brand":"Red Roof Inn"},"routes":{"out":{"m":5,"o":0.59},"retFast":{"m":524.1,"o":3.49}}},{"id":"w573744294","name":"Super Value Inn","cat":"lodging","sub":"hotel","lat":38.24418,"lon":-77.50126,"tags":{},"routes":{"out":{"m":5.2,"o":0.54},"retFast":{"m":522.1,"o":3.52}}},{"id":"w631586322","name":"Travelodge","cat":"lodging","sub":"hotel","lat":38.24601,"lon":-77.49827,"tags":{"brand":"Travelodge"},"routes":{"out":{"m":5,"o":0.52},"retFast":{"m":524.1,"o":3.43}}},{"id":"w737753452","name":"BP","cat":"fuel","sub":"fuel","lat":38.24742,"lon":-77.49927,"tags":{"brand":"BP"},"routes":{"out":{"m":5,"o":0.41},"retFast":{"m":524.1,"o":3.34}}},{"id":"w759379209","name":"Royal Farms","cat":"fuel","sub":"fuel","lat":38.24919,"lon":-77.49926,"tags":{"brand":"Royal Farms"},"routes":{"out":{"m":4.9,"o":0.31},"retFast":{"m":524.1,"o":3.22}}},{"id":"w1002015774","name":"Sunoco","cat":"fuel","sub":"fuel","lat":38.24586,"lon":-77.49942,"tags":{"brand":"Sunoco","phone":"+1 540-710-1003","website":"https://www.sunoco.com/locations/store/5317-jefferson-davis-hgwy-fredericksburg-va-0042373100"},"routes":{"out":{"m":5.1,"o":0.5},"retFast":{"m":524.1,"o":3.45}}},{"id":"w39256849","name":"Gulf","cat":"fuel","sub":"fuel","lat":38.25295,"lon":-77.5011,"tags":{"brand":"Gulf"},"routes":{"out":{"m":4.9,"o":0.04},"retFast":{"m":524.1,"o":2.97}}},{"id":"w39257030","name":"Hardee's","cat":"food","sub":"fast_food","lat":38.2561,"lon":-77.49803,"tags":{"brand":"Hardee's","phone":"+1 540-898-1236","website":"https://locations.hardees.com/va/fredericksburg/10706-patriot-highway","cuisine":"burger"},"routes":{"out":{"m":4.6,"o":0.03},"retFast":{"m":524.1,"o":2.73}}},{"id":"w39257158","name":"DQ Grill & Chill","cat":"food","sub":"fast_food","lat":38.25378,"lon":-77.49969,"tags":{"brand":"DQ Grill & Chill","phone":"+1 540-898-0077","website":"https://www.dairyqueen.com/locations/va/fredericksburg/10907-courthouse-rd/6091","cuisine":"ice_cream;burger"},"routes":{"out":{"m":4.8,"o":0.03},"retFast":{"m":524.1,"o":2.9}}},{"id":"w39257031","name":"Dunkin'","cat":"food","sub":"fast_food","lat":38.25671,"lon":-77.49802,"tags":{"brand":"Dunkin'","opening_hours":"05:00-21:00","phone":"+1 540-693-1305","website":"https://locations.dunkindonuts.com/en/va/fredericksburg/5101-jefferson-davis-hwy/354082","cuisine":"donut;coffee_shop"},"routes":{"out":{"m":4.5,"o":0.03},"retFast":{"m":524.1,"o":2.69}}},{"id":"w628556749","name":"Quarles Fleet Fueling","cat":"fuel","sub":"fuel","lat":38.25949,"lon":-77.49624,"tags":{"opening_hours":"24/7"},"routes":{"out":{"m":4.3,"o":0.04},"retFast":{"m":524.1,"o":2.49}}},{"id":"w50249869","name":null,"cat":"fuel","sub":"fuel","lat":38.25997,"lon":-77.49318,"tags":{},"routes":{"out":{"m":4.3,"o":0.19},"retFast":{"m":524.1,"o":2.45}}},{"id":"w50250183","name":"Wawa","cat":"fuel","sub":"fuel","lat":38.26448,"lon":-77.49461,"tags":{"brand":"Wawa"},"routes":{"out":{"m":4,"o":0.05},"retFast":{"m":524.1,"o":2.14}}},{"id":"w921299221","name":"Residence Inn Fredericksburg","cat":"lodging","sub":"hotel","lat":38.28742,"lon":-77.51013,"tags":{"brand":"Residence Inn","phone":"+1 540-786-9222","website":"https://www.marriott.com/fkrri"},"routes":{"out":{"m":2.7,"o":1.21},"retFast":{"m":523.2,"o":0.59}}},{"id":"w1172695620","name":null,"cat":"fuel","sub":"fuel","lat":38.27947,"lon":-77.49047,"tags":{},"routes":{"out":{"m":2.9,"o":0.03},"retFast":{"m":524.1,"o":1.12}}},{"id":"w879812729","name":"Peoples Market and Deli","cat":"fuel","sub":"fuel","lat":38.28225,"lon":-77.45349,"tags":{"brand":"Marathon"},"routes":{"out":{"m":0.6,"o":1.3},"retFast":{"m":525.7,"o":1.3}}},{"id":"w879812731","name":"Quarles Fleet Fueling","cat":"fuel","sub":"fuel","lat":38.2834,"lon":-77.45375,"tags":{},"routes":{"out":{"m":0.6,"o":1.23},"retFast":{"m":525.7,"o":1.23}}},{"id":"w879812732","name":null,"cat":"fuel","sub":"fuel","lat":38.28347,"lon":-77.454,"tags":{},"routes":{"out":{"m":0.6,"o":1.22},"retFast":{"m":525.7,"o":1.22}}},{"id":"w417050402","name":"Sheetz","cat":"fuel","sub":"fuel","lat":38.28643,"lon":-77.43733,"tags":{"brand":"Sheetz"},"routes":{"out":{"m":0.1,"o":1.65},"retFast":{"m":526,"o":1.7}}},{"id":"w562614149","name":"7-Eleven","cat":"fuel","sub":"fuel","lat":38.25152,"lon":-77.42581,"tags":{"brand":"7-Eleven"},"routes":{"out":{"m":3.7,"o":3.88},"retFast":{"m":525.7,"o":3.9}}},{"id":"w608191461","name":"Murphy USA","cat":"fuel","sub":"fuel","lat":38.28555,"lon":-77.43606,"tags":{"brand":"Murphy USA"},"routes":{"out":{"m":0.1,"o":1.74},"retFast":{"m":526,"o":1.79}}},{"id":"w275077092","name":"Starbucks","cat":"food","sub":"cafe","lat":38.29217,"lon":-77.56969,"tags":{"brand":"Starbucks","opening_hours":"Su-Th 06:00-20:00; Fr,Sa 06:00-20:30","phone":"+1 540-785-0073","website":"https://www.starbucks.com/store-locator/store/6940/harrison-crossing-5811-plank-road-fredericksburg-va-224076229-us","cuisine":"coffee_shop"},"routes":{"out":{"m":6.8,"o":3.91},"retFast":{"m":519.9,"o":0.04}}},{"id":"w648605177","name":"Sonic","cat":"food","sub":"fast_food","lat":38.29229,"lon":-77.57011,"tags":{"brand":"Sonic","opening_hours":"Mo-Sa 07:00-23:00; Su 08:00-23:00","website":"https://locations.sonicdrivein.com/va/fredericksburg/5817-plank-road.html","cuisine":"burger"},"routes":{"out":{"m":6.8,"o":3.93},"retFast":{"m":519.8,"o":0.05}}},{"id":"w648605172","name":"Wendy's","cat":"food","sub":"fast_food","lat":38.29215,"lon":-77.5684,"tags":{"brand":"Wendy's","opening_hours":"07:00-22:00","phone":"+1 540-388-2928","website":"https://locations.wendys.com/united-states/va/fredericksburg/5801-plank-road","cuisine":"burger"},"routes":{"out":{"m":6.8,"o":3.88},"retFast":{"m":519.9,"o":0.05}}},{"id":"w648605169","name":"Giant Food Gas","cat":"fuel","sub":"fuel","lat":38.29197,"lon":-77.56689,"tags":{"brand":"Giant"},"routes":{"out":{"m":6.8,"o":3.83},"retFast":{"m":520,"o":0.05}}},{"id":"w608469280","name":"Quarles Fleet Fueling","cat":"fuel","sub":"fuel","lat":38.29004,"lon":-77.54644,"tags":{"brand":"Quarles"},"routes":{"out":{"m":3.1,"o":3.15},"retFast":{"m":521.1,"o":0.04}}},{"id":"w868595546","name":"Cheddar's","cat":"food","sub":"restaurant","lat":38.29165,"lon":-77.52398,"tags":{"brand":"Cheddar's","cuisine":"american"},"routes":{"out":{"m":2.6,"o":2.01},"retFast":{"m":522.4,"o":0.02}}},{"id":"w50250652","name":"Mi Rancho Authentic Mexican Food","cat":"food","sub":"restaurant","lat":38.29397,"lon":-77.51791,"tags":{"cuisine":"mexican"},"routes":{"out":{"m":2.4,"o":1.74},"retFast":{"m":522.8,"o":0.02}}},{"id":"w50250733","name":null,"cat":"fuel","sub":"fuel","lat":38.29288,"lon":-77.52079,"tags":{},"routes":{"out":{"m":2.5,"o":1.87},"retFast":{"m":522.6,"o":0.02}}},{"id":"w50252844","name":"BJ's Gas","cat":"fuel","sub":"fuel","lat":38.29523,"lon":-77.51705,"tags":{"brand":"BJ's Wholesale Club"},"routes":{"out":{"m":2.3,"o":1.72},"retFast":{"m":522.9,"o":0.04}}},{"id":"w39359545","name":"Exxon","cat":"fuel","sub":"fuel","lat":38.29581,"lon":-77.51551,"tags":{"brand":"Exxon"},"routes":{"out":{"m":2.2,"o":1.65},"retFast":{"m":522.9,"o":0.04}}},{"id":"w494372955","name":"Econo Lodge","cat":"lodging","sub":"motel","lat":38.29478,"lon":-77.51203,"tags":{"brand":"Econo Lodge","phone":"+1 540-786-8881","website":"https://www.choicehotels.com/virginia/thornburg/quality-inn-hotels"},"routes":{"out":{"m":2.2,"o":1.45},"retFast":{"m":523.1,"o":0.08}}},{"id":"w39356702","name":"Fredericksburg Hospitality House","cat":"lodging","sub":"hotel","lat":38.29829,"lon":-77.50966,"tags":{},"routes":{"out":{"m":1.7,"o":1.37},"retFast":{"m":523.3,"o":0.16}}},{"id":"w1339384167","name":"Clarion","cat":"lodging","sub":"hotel","lat":38.29793,"lon":-77.51039,"tags":{"brand":"Clarion"},"routes":{"out":{"m":1.7,"o":1.41},"retFast":{"m":523.2,"o":0.14}}},{"id":"w921162621","name":"WoodSpring Suites Fredericksburg","cat":"lodging","sub":"hotel","lat":38.30008,"lon":-77.50529,"tags":{"brand":"WoodSpring Suites"},"routes":{"out":{"m":1.7,"o":1.16},"retFast":{"m":523.5,"o":0.27}}},{"id":"w494372957","name":"Quality Inn Fredericksburg, Central Park Area","cat":"lodging","sub":"hotel","lat":38.29509,"lon":-77.49848,"tags":{"brand":"Quality Inn"},"routes":{"out":{"m":2,"o":0.75},"retFast":{"m":523.9,"o":0.07}}},{"id":"w1216369693","name":"Royal Farms","cat":"fuel","sub":"fuel","lat":38.29577,"lon":-77.49675,"tags":{"brand":"Royal Farms"},"routes":{"out":{"m":1.7,"o":0.66},"retFast":{"m":524,"o":0.02}}},{"id":"w1249296640","name":"McDonald's","cat":"food","sub":"fast_food","lat":38.29578,"lon":-77.49788,"tags":{"brand":"McDonald's","opening_hours":"Mo-Su 05:00-22:00","phone":"+1 703-420-9636","website":"https://www.mcdonalds.com/us/en-us/location/18044.html","cuisine":"burger"},"routes":{"out":{"m":1.7,"o":0.72},"retFast":{"m":523.9,"o":0.02}}},{"id":"w1339128588","name":"Wawa","cat":"fuel","sub":"fuel","lat":38.29582,"lon":-77.50007,"tags":{"brand":"Wawa"},"routes":{"out":{"m":1.7,"o":0.84},"retFast":{"m":523.8,"o":0.03}}},{"id":"w494372958","name":"Best Western","cat":"lodging","sub":"hotel","lat":38.29702,"lon":-77.49621,"tags":{"brand":"Best Western","phone":"+1 540-371-5050","website":"https://www.bestwestern.com/en_US/book/hotels-in-fredericksburg/best-western-fredericksburg/propertyCode.47084.html"},"routes":{"out":{"m":1.7,"o":0.64},"retFast":{"m":524,"o":0.07}}},{"id":"w305723371","name":"Popeyes","cat":"food","sub":"fast_food","lat":38.2962,"lon":-77.4912,"tags":{"brand":"Popeyes","cuisine":"chicken"},"routes":{"out":{"m":1.7,"o":0.36},"retFast":{"m":524.3,"o":0.02}}},{"id":"w1287470193","name":"Long John Silver's","cat":"food","sub":"fast_food","lat":38.2962,"lon":-77.49107,"tags":{"brand":"Long John Silver's","cuisine":"seafood"},"routes":{"out":{"m":1.7,"o":0.35},"retFast":{"m":524.3,"o":0.02}}},{"id":"w39353787","name":"Silver Collection Hotel","cat":"lodging","sub":"hotel","lat":38.31321,"lon":-77.51183,"tags":{},